{
"type": "FeatureCollection",

                                                                                
"features": [
{ "type": "Feature", "properties": { "Resource": "APIARY", "Industry": null, "Name": "Cole Family Apiary", "lon": -83.919126, "lat": 36.857480, "ADDRESS": "3744 Ky 459", "CITY": "Barbourville", "STATE": "KY", "ZIP": 40906, "COUNTY": null, "source": 7, "field_12": null, "field_13": null, "field_14": null, "field_15": null, "field_16": null, "field_17": null, "field_18": null }, "geometry": { "type": "Point", "coordinates": [ -83.9191259, 36.8574799 ] } },

{ "type": "Feature", "properties": { "Resource": "APIARY", "Industry": null, "Name": "From the Hive", "lon": -83.148043, "lat": 37.261328, "ADDRESS": "2500 Uppy 2nd Creek Rd", "CITY": "Hazard", "STATE": "KY", "ZIP": 41701, "COUNTY": null, "source": 7, "field_12": null, "field_13": null, "field_14": null, "field_15": null, "field_16": null, "field_17": null, "field_18": null }, "geometry": { "type": "Point", "coordinates": [ -83.1480426, 37.2613284 ] } },

{ "type": "Feature", "properties": { "Resource": "APIARY", "Industry": null, "Name": "Hendrix Honey", "lon": -84.111400, "lat": 36.934235, "ADDRESS": "1212 Forest Circle Dr", "CITY": "Corbin (Whitley)", "STATE": "KY", "ZIP": 40701, "COUNTY": null, "source": 7, "field_12": null, "field_13": null, "field_14": null, "field_15": null, "field_16": null, "field_17": null, "field_18": null }, "geometry": { "type": "Point", "coordinates": [ -84.1113996, 36.9342346 ] } },
{ "type": "Feature", "properties": { "Resource": "APIARY", "Industry": null, "Name": "Honey Flower Farm", "lon": -83.331487, "lat": 37.343421, "ADDRESS": "115 Little Clabe Dr", "CITY": "Hazard", "STATE": "KY", "ZIP": 41701, "COUNTY": null, "source": 7, "field_12": null, "field_13": null, "field_14": null, "field_15": null, "field_16": null, "field_17": null, "field_18": null }, "geometry": { "type": "Point", "coordinates": [ -83.3314874, 37.3434215 ] } },
{ "type": "Feature", "properties": { "Resource": "APIARY", "Industry": null, "Name": "Honey Works", "lon": -84.096876, "lat": 36.948699, "ADDRESS": "PO Box 2354", "CITY": "Corbin", "STATE": "KY", "ZIP": 40702, "COUNTY": null, "source": 7, "field_12": null, "field_13": null, "field_14": null, "field_15": null, "field_16": null, "field_17": null, "field_18": null }, "geometry": { "type": "Point", "coordinates": [ -84.0968761, 36.9486986 ] } },
{ "type": "Feature", "properties": { "Resource": "APIARY", "Industry": null, "Name": "K And D Honey", "lon": -83.993511, "lat": 37.700885, "ADDRESS": "158 Bond St", "CITY": "Irvine", "STATE": "KY", "ZIP": 40336, "COUNTY": null, "source": 7, "field_12": null, "field_13": null, "field_14": null, "field_15": null, "field_16": null, "field_17": null, "field_18": null }, "geometry": { "type": "Point", "coordinates": [ -83.9935113, 37.7008852 ] } },
{ "type": "Feature", "properties": { "Resource": "APIARY", "Industry": null, "Name": "Kentucky Bee Company", "lon": -84.159608, "lat": 37.066314, "ADDRESS": "996 Angel Acres", "CITY": "London", "STATE": "KY", "ZIP": 40741, "COUNTY": null, "source": 7, "field_12": null, "field_13": null, "field_14": null, "field_15": null, "field_16": null, "field_17": null, "field_18": null }, "geometry": { "type": "Point", "coordinates": [ -84.1596083, 37.0663144 ] } },
{ "type": "Feature", "properties": { "Resource": "APIARY", "Industry": null, "Name": "Kentucky Mtn. Honey", "lon": -84.528010, "lat": 36.969971, "ADDRESS": "194 Valley View Dr", "CITY": "Burnside", "STATE": "KY", "ZIP": 42519, "COUNTY": null, "source": 7, "field_12": null, "field_13": null, "field_14": null, "field_15": null, "field_16": null, "field_17": null, "field_18": null }, "geometry": { "type": "Point", "coordinates": [ -84.5280099, 36.9699706 ] } },
{ "type": "Feature", "properties": { "Resource": "APIARY", "Industry": null, "Name": "Lost Creek Bees", "lon": -83.296098, "lat": 37.410294, "ADDRESS": "1099 Little Leatherwood Rd", "CITY": "Lost Creek", "STATE": "KY", "ZIP": 41348, "COUNTY": null, "source": 7, "field_12": null, "field_13": null, "field_14": null, "field_15": null, "field_16": null, "field_17": null, "field_18": null }, "geometry": { "type": "Point", "coordinates": [ -83.296098, 37.4102937 ] } },
{ "type": "Feature", "properties": { "Resource": "APIARY", "Industry": null, "Name": "Noble's Honey Farm", "lon": -83.322299, "lat": 37.809880, "ADDRESS": "835 Buskirk Rd.", "CITY": "Grassy Creek", "STATE": "KY", "ZIP": 41352, "COUNTY": null, "source": 7, "field_12": null, "field_13": null, "field_14": null, "field_15": null, "field_16": null, "field_17": null, "field_18": null }, "geometry": { "type": "Point", "coordinates": [ -83.3222989, 37.8098795 ] } },
{ "type": "Feature", "properties": { "Resource": "APIARY", "Industry": null, "Name": "Uncle Ted's Honey", "lon": -82.808399, "lat": 37.212062, "ADDRESS": "180 Winter Drive", "CITY": "Thornton", "STATE": "KY", "ZIP": 41855, "COUNTY": null, "source": 7, "field_12": null, "field_13": null, "field_14": null, "field_15": null, "field_16": null, "field_17": null, "field_18": null }, "geometry": { "type": "Point", "coordinates": [ -82.8083986, 37.2120623 ] } },
{ "type": "Feature", "properties": { "Resource": "APIARY", "Industry": null, "Name": "Williams Apiary", "lon": -84.451060, "lat": 36.623459, "ADDRESS": "808 Mt. Pleasant Rd", "CITY": "Strunk", "STATE": "KY", "ZIP": 42649, "COUNTY": null, "source": 7, "field_12": null, "field_13": null, "field_14": null, "field_15": null, "field_16": null, "field_17": null, "field_18": null }, "geometry": { "type": "Point", "coordinates": [ -84.4510597, 36.623459 ] } },
{ "type": "Feature", "properties": { "Resource": "APIARY", "Industry": null, "Name": "Wilson's Cedar Point Farm", "lon": -84.858281, "lat": 37.105440, "ADDRESS": "66 Garfield Tarter Rd", "CITY": "Nancy", "STATE": "KY", "ZIP": 42544, "COUNTY": null, "source": 7, "field_12": null, "field_13": null, "field_14": null, "field_15": null, "field_16": null, "field_17": null, "field_18": null }, "geometry": { "type": "Point", "coordinates": [ -84.8582813, 37.1054397 ] } },
{ "type": "Feature", "properties": { "Resource": "APIARY", "Industry": null, "Name": "Yetter Honey & Herbs", "lon": -84.168351, "lat": 36.740969, "ADDRESS": "53 Delsuemar Dr.", "CITY": "Williamsburg", "STATE": "KY", "ZIP": 40769, "COUNTY": null, "source": 7, "field_12": null, "field_13": null, "field_14": null, "field_15": null, "field_16": null, "field_17": null, "field_18": null }, "geometry": { "type": "Point", "coordinates": [ -84.1683511, 36.7409687 ] } },
{ "type": "Feature", "properties": { "Resource": "FARM", "Industry": null, "Name": "2 Broke Art Teachers", "lon": -82.537926, "lat": 37.628859, "ADDRESS": "691 Sycamore Road", "CITY": "Pikeville", "STATE": "KY", "ZIP": 41501, "COUNTY": null, "source": 5, "field_12": null, "field_13": null, "field_14": null, "field_15": null, "field_16": null, "field_17": null, "field_18": null }, "geometry": { "type": "Point", "coordinates": [ -82.5379265, 37.6288592 ] } },
{ "type": "Feature", "properties": { "Resource": "FARM", "Industry": null, "Name": "4 C's Farm", "lon": -83.310229, "lat": 37.304185, "ADDRESS": "21 Pine Top Ln", "CITY": "Krypton", "STATE": "KY", "ZIP": 41754, "COUNTY": null, "source": 5, "field_12": null, "field_13": null, "field_14": null, "field_15": null, "field_16": null, "field_17": null, "field_18": null }, "geometry": { "type": "Point", "coordinates": [ -83.3102288, 37.3041847 ] } },
{ "type": "Feature", "properties": { "Resource": "FARM", "Industry": null, "Name": "4 Got N Tymes Farm", "lon": -82.762783, "lat": 38.184576, "ADDRESS": "2770 Little Cat Fork Rd", "CITY": "Louisa", "STATE": "KY", "ZIP": 41230, "COUNTY": null, "source": 5, "field_12": null, "field_13": null, "field_14": null, "field_15": null, "field_16": null, "field_17": null, "field_18": null }, "geometry": { "type": "Point", "coordinates": [ -82.7627834, 38.1845763 ] } },
{ "type": "Feature", "properties": { "Resource": "FARM", "Industry": null, "Name": "5 W Farms", "lon": -84.630330, "lat": 37.281825, "ADDRESS": "1424 Old Cuba Rd", "CITY": "Eubank", "STATE": "KY", "ZIP": 42567, "COUNTY": null, "source": 5, "field_12": null, "field_13": null, "field_14": null, "field_15": null, "field_16": null, "field_17": null, "field_18": null }, "geometry": { "type": "Point", "coordinates": [ -84.6303298, 37.2818252 ] } },
{ "type": "Feature", "properties": { "Resource": "FARM", "Industry": null, "Name": "A & A Farm", "lon": -84.639975, "lat": 36.988200, "ADDRESS": "1306 Old Hwy 90", "CITY": "Bronston", "STATE": "KY", "ZIP": 42518, "COUNTY": null, "source": 5, "field_12": null, "field_13": null, "field_14": null, "field_15": null, "field_16": null, "field_17": null, "field_18": null }, "geometry": { "type": "Point", "coordinates": [ -84.6399746, 36.9881996 ] } },
{ "type": "Feature", "properties": { "Resource": "FARM", "Industry": null, "Name": "A & L Farm and Greenhouse", "lon": -83.959071, "lat": 37.436420, "ADDRESS": "1000 Pilgrims Rest Road", "CITY": "McKee", "STATE": "KY", "ZIP": 40447, "COUNTY": null, "source": 5, "field_12": null, "field_13": null, "field_14": null, "field_15": null, "field_16": null, "field_17": null, "field_18": null }, "geometry": { "type": "Point", "coordinates": [ -83.9590713, 37.4364197 ] } },
{ "type": "Feature", "properties": { "Resource": "FARM", "Industry": null, "Name": "A. Faith Farms", "lon": -82.630989, "lat": 37.173437, "ADDRESS": "PO Box 204", "CITY": "Jenkins", "STATE": "KY", "ZIP": 41537, "COUNTY": null, "source": 5, "field_12": null, "field_13": null, "field_14": null, "field_15": null, "field_16": null, "field_17": null, "field_18": null }, "geometry": { "type": "Point", "coordinates": [ -82.6309892, 37.1734372 ] } },
{ "type": "Feature", "properties": { "Resource": "FARM", "Industry": null, "Name": "Acres Of Grace Farm", "lon": -83.571561, "lat": 37.205400, "ADDRESS": "963 Jacks Creek Rd", "CITY": "Oneida", "STATE": "KY", "ZIP": 40972, "COUNTY": null, "source": 5, "field_12": null, "field_13": null, "field_14": null, "field_15": null, "field_16": null, "field_17": null, "field_18": null }, "geometry": { "type": "Point", "coordinates": [ -83.5715608, 37.2053997 ] } },
{ "type": "Feature", "properties": { "Resource": "FARM", "Industry": null, "Name": "Adams Acres", "lon": -82.930021, "lat": 37.170136, "ADDRESS": "249 Black Bottom Rd", "CITY": "Jeremiah", "STATE": "KY", "ZIP": 41826, "COUNTY": null, "source": 5, "field_12": null, "field_13": null, "field_14": null, "field_15": null, "field_16": null, "field_17": null, "field_18": null }, "geometry": { "type": "Point", "coordinates": [ -82.930021, 37.1701355 ] } },
{ "type": "Feature", "properties": { "Resource": "FARM", "Industry": null, "Name": "Adkins Farms", "lon": -84.608111, "lat": 37.258146, "ADDRESS": "781 Bullock Rd", "CITY": "Eubank", "STATE": "KY", "ZIP": 42567, "COUNTY": null, "source": 5, "field_12": null, "field_13": null, "field_14": null, "field_15": null, "field_16": null, "field_17": null, "field_18": null }, "geometry": { "type": "Point", "coordinates": [ -84.6081109, 37.2581459 ] } },
{ "type": "Feature", "properties": { "Resource": "FARM", "Industry": null, "Name": "Agape Land Farm", "lon": -84.448940, "lat": 39.125161, "ADDRESS": "91 C A Dr", "CITY": "Corbin", "STATE": "KY", "ZIP": 40701, "COUNTY": null, "source": 5, "field_12": null, "field_13": null, "field_14": null, "field_15": null, "field_16": null, "field_17": null, "field_18": null }, "geometry": { "type": "Point", "coordinates": [ -84.4489402, 39.1251612 ] } },
{ "type": "Feature", "properties": { "Resource": "FARM", "Industry": null, "Name": "Amyx Farms", "lon": -83.356289, "lat": 37.895002, "ADDRESS": "2249 New Cummer Road", "CITY": "West Liberty", "STATE": "KY", "ZIP": 41472, "COUNTY": null, "source": 5, "field_12": null, "field_13": null, "field_14": null, "field_15": null, "field_16": null, "field_17": null, "field_18": null }, "geometry": { "type": "Point", "coordinates": [ -83.356289, 37.8950019 ] } },
{ "type": "Feature", "properties": { "Resource": "FARM", "Industry": null, "Name": "Andrew Noyes", "lon": -84.727707, "lat": 37.103897, "ADDRESS": "1403 Piney Grove Road", "CITY": "Nancy", "STATE": "KY", "ZIP": 42544, "COUNTY": null, "source": 5, "field_12": null, "field_13": null, "field_14": null, "field_15": null, "field_16": null, "field_17": null, "field_18": null }, "geometry": { "type": "Point", "coordinates": [ -84.7277068, 37.1038971 ] } },
{ "type": "Feature", "properties": { "Resource": "FARM", "Industry": null, "Name": "Appalachia Animal Farm Inc", "lon": -84.113533, "lat": 37.224770, "ADDRESS": "617 Hensley Road", "CITY": "East Bernstadt", "STATE": "KY", "ZIP": 40729, "COUNTY": null, "source": 5, "field_12": null, "field_13": null, "field_14": null, "field_15": null, "field_16": null, "field_17": null, "field_18": null }, "geometry": { "type": "Point", "coordinates": [ -84.1135331, 37.2247703 ] } },
{ "type": "Feature", "properties": { "Resource": "FARM", "Industry": null, "Name": "Ard Ridge Cattle Company", "lon": -84.808411, "lat": 37.031164, "ADDRESS": "814 Ard Ridge Rd", "CITY": "Nancy", "STATE": "KY", "ZIP": 42544, "COUNTY": null, "source": 5, "field_12": null, "field_13": null, "field_14": null, "field_15": null, "field_16": null, "field_17": null, "field_18": null }, "geometry": { "type": "Point", "coordinates": [ -84.8084108, 37.0311644 ] } },
{ "type": "Feature", "properties": { "Resource": "FARM", "Industry": null, "Name": "Arlena Lewis", "lon": -83.259622, "lat": 37.921476, "ADDRESS": "PO Boxx 472", "CITY": "West Liberty", "STATE": "KY", "ZIP": 41472, "COUNTY": null, "source": 5, "field_12": null, "field_13": null, "field_14": null, "field_15": null, "field_16": null, "field_17": null, "field_18": null }, "geometry": { "type": "Point", "coordinates": [ -83.2596216, 37.9214758 ] } },
{ "type": "Feature", "properties": { "Resource": "FARM", "Industry": null, "Name": "Arrowood Farm", "lon": -83.424443, "lat": 37.411176, "ADDRESS": "2095 Hwy 1933", "CITY": "Jackson", "STATE": "KY", "ZIP": 41339, "COUNTY": null, "source": 5, "field_12": null, "field_13": null, "field_14": null, "field_15": null, "field_16": null, "field_17": null, "field_18": null }, "geometry": { "type": "Point", "coordinates": [ -83.4244433, 37.4111758 ] } },
{ "type": "Feature", "properties": { "Resource": "FARM", "Industry": null, "Name": "Arveybell Farm Co", "lon": -83.714285, "lat": 36.607257, "ADDRESS": "PO Box 548", "CITY": "Middlesboro", "STATE": "KY", "ZIP": 40965, "COUNTY": null, "source": 5, "field_12": null, "field_13": null, "field_14": null, "field_15": null, "field_16": null, "field_17": null, "field_18": null }, "geometry": { "type": "Point", "coordinates": [ -83.7142848, 36.6072567 ] } },
{ "type": "Feature", "properties": { "Resource": "FARM", "Industry": null, "Name": "Arvin Farms", "lon": -84.025391, "lat": 37.672987, "ADDRESS": "300 Dug Hill Rd", "CITY": "Irvine", "STATE": "KY", "ZIP": 40336, "COUNTY": null, "source": 5, "field_12": null, "field_13": null, "field_14": null, "field_15": null, "field_16": null, "field_17": null, "field_18": null }, "geometry": { "type": "Point", "coordinates": [ -84.0253905, 37.6729873 ] } },
{ "type": "Feature", "properties": { "Resource": "FARM", "Industry": null, "Name": "Aunt Belle's Farm", "lon": -82.451732, "lat": 37.663546, "ADDRESS": "7365 Brushy Rd", "CITY": "Varney", "STATE": "KY", "ZIP": 41571, "COUNTY": null, "source": 5, "field_12": null, "field_13": null, "field_14": null, "field_15": null, "field_16": null, "field_17": null, "field_18": null }, "geometry": { "type": "Point", "coordinates": [ -82.4517324, 37.6635462 ] } },
{ "type": "Feature", "properties": { "Resource": "FARM", "Industry": null, "Name": "B & M Farm", "lon": -83.206175, "lat": 37.355389, "ADDRESS": "249 Lora Lane", "CITY": "Hazard", "STATE": "KY", "ZIP": 41701, "COUNTY": null, "source": 5, "field_12": null, "field_13": null, "field_14": null, "field_15": null, "field_16": null, "field_17": null, "field_18": null }, "geometry": { "type": "Point", "coordinates": [ -83.2061746, 37.3553894 ] } },
{ "type": "Feature", "properties": { "Resource": "FARM", "Industry": null, "Name": "B.S.B.P.", "lon": -82.914866, "lat": 38.101818, "ADDRESS": "3911 Blaine Trace Rd", "CITY": "Webbville", "STATE": "KY", "ZIP": 41180, "COUNTY": null, "source": 5, "field_12": null, "field_13": null, "field_14": null, "field_15": null, "field_16": null, "field_17": null, "field_18": null }, "geometry": { "type": "Point", "coordinates": [ -82.9148662, 38.1018179 ] } },
{ "type": "Feature", "properties": { "Resource": "FARM", "Industry": null, "Name": "Backwood Farms", "lon": -83.083055, "lat": 37.129300, "ADDRESS": "12987  KY HWY 7", "CITY": "Cornettsville", "STATE": "KY", "ZIP": 41731, "COUNTY": null, "source": 5, "field_12": null, "field_13": null, "field_14": null, "field_15": null, "field_16": null, "field_17": null, "field_18": null }, "geometry": { "type": "Point", "coordinates": [ -83.0830549, 37.1293001 ] } },
{ "type": "Feature", "properties": { "Resource": "FARM", "Industry": null, "Name": "Bailey's Farm", "lon": -83.285002, "lat": 37.714680, "ADDRESS": "419 Wheelrim Rd", "CITY": "Campton", "STATE": "KY", "ZIP": 41301, "COUNTY": null, "source": 5, "field_12": null, "field_13": null, "field_14": null, "field_15": null, "field_16": null, "field_17": null, "field_18": null }, "geometry": { "type": "Point", "coordinates": [ -83.285002, 37.7146795 ] } },
{ "type": "Feature", "properties": { "Resource": "FARM", "Industry": null, "Name": "Baker Family Farm", "lon": -83.737696, "lat": 36.877032, "ADDRESS": "PO Box 275", "CITY": "Dewitt", "STATE": "KY", "ZIP": 40930, "COUNTY": null, "source": 5, "field_12": null, "field_13": null, "field_14": null, "field_15": null, "field_16": null, "field_17": null, "field_18": null }, "geometry": { "type": "Point", "coordinates": [ -83.7376965, 36.8770316 ] } },
{ "type": "Feature", "properties": { "Resource": "FARM", "Industry": null, "Name": "Ballinger Farms", "lon": -84.201231, "lat": 37.484055, "ADDRESS": "6049 Three Links Road", "CITY": "McKee", "STATE": "KY", "ZIP": 40447, "COUNTY": null, "source": 5, "field_12": null, "field_13": null, "field_14": null, "field_15": null, "field_16": null, "field_17": null, "field_18": null }, "geometry": { "type": "Point", "coordinates": [ -84.201231, 37.484055 ] } },
{ "type": "Feature", "properties": { "Resource": "FARM", "Industry": null, "Name": "Barron Charolais", "lon": -84.439385, "lat": 37.278054, "ADDRESS": "697 Goldfinch Ln", "CITY": "Brodhead", "STATE": "KY", "ZIP": 40409, "COUNTY": null, "source": 5, "field_12": null, "field_13": null, "field_14": null, "field_15": null, "field_16": null, "field_17": null, "field_18": null }, "geometry": { "type": "Point", "coordinates": [ -84.4393849, 37.2780536 ] } },
{ "type": "Feature", "properties": { "Resource": "FARM", "Industry": null, "Name": "Barron's Farm", "lon": -84.459918, "lat": 37.369745, "ADDRESS": "365 Old Smokey Rd", "CITY": "Brodhead", "STATE": "KY", "ZIP": 40409, "COUNTY": null, "source": 5, "field_12": null, "field_13": null, "field_14": null, "field_15": null, "field_16": null, "field_17": null, "field_18": null }, "geometry": { "type": "Point", "coordinates": [ -84.4599179, 37.3697451 ] } },
{ "type": "Feature", "properties": { "Resource": "FARM", "Industry": null, "Name": "Beckley Herefords", "lon": -83.867721, "lat": 37.648322, "ADDRESS": "284 Pryse Lane", "CITY": "Irvine", "STATE": "KY", "ZIP": 40336, "COUNTY": null, "source": 5, "field_12": null, "field_13": null, "field_14": null, "field_15": null, "field_16": null, "field_17": null, "field_18": null }, "geometry": { "type": "Point", "coordinates": [ -83.8677208, 37.6483225 ] } },
{ "type": "Feature", "properties": { "Resource": "FARM", "Industry": null, "Name": "Bee Kidz Farm", "lon": -84.083265, "lat": 37.128977, "ADDRESS": "PO Box 1714", "CITY": "London", "STATE": "KY", "ZIP": 40743, "COUNTY": null, "source": 5, "field_12": null, "field_13": null, "field_14": null, "field_15": null, "field_16": null, "field_17": null, "field_18": null }, "geometry": { "type": "Point", "coordinates": [ -84.0832646, 37.1289771 ] } },
{ "type": "Feature", "properties": { "Resource": "FARM", "Industry": null, "Name": "Beef by Greeneleaf Farm, LLC", "lon": -84.125327, "lat": 37.023227, "ADDRESS": "880 East Highway 552", "CITY": "Keavy", "STATE": "KY", "ZIP": 40737, "COUNTY": null, "source": 5, "field_12": null, "field_13": null, "field_14": null, "field_15": null, "field_16": null, "field_17": null, "field_18": null }, "geometry": { "type": "Point", "coordinates": [ -84.1253275, 37.0232274 ] } },
{ "type": "Feature", "properties": { "Resource": "FARM", "Industry": null, "Name": "Beggarticks Farm", "lon": -84.179659, "lat": 36.748925, "ADDRESS": "230 Reverend Bill Perkins Road", "CITY": "Williamsburg", "STATE": "KY", "ZIP": 40769, "COUNTY": null, "source": 5, "field_12": null, "field_13": null, "field_14": null, "field_15": null, "field_16": null, "field_17": null, "field_18": null }, "geometry": { "type": "Point", "coordinates": [ -84.1796585, 36.7489253 ] } },
{ "type": "Feature", "properties": { "Resource": "FARM", "Industry": null, "Name": "Bentgate Farm", "lon": -82.814666, "lat": 38.757998, "ADDRESS": "336 Cook Rd", "CITY": "Mt Vernon", "STATE": "KY", "ZIP": 40456, "COUNTY": null, "source": 5, "field_12": null, "field_13": null, "field_14": null, "field_15": null, "field_16": null, "field_17": null, "field_18": null }, "geometry": { "type": "Point", "coordinates": [ -82.8146664, 38.7579977 ] } },
{ "type": "Feature", "properties": { "Resource": "FARM", "Industry": null, "Name": "Benton's Produce", "lon": -83.256416, "lat": 37.868331, "ADDRESS": "2819 Highway 191", "CITY": "West Liberty", "STATE": "KY", "ZIP": 41472, "COUNTY": null, "source": 5, "field_12": null, "field_13": null, "field_14": null, "field_15": null, "field_16": null, "field_17": null, "field_18": null }, "geometry": { "type": "Point", "coordinates": [ -83.2564161, 37.8683313 ] } },
{ "type": "Feature", "properties": { "Resource": "FARM", "Industry": null, "Name": "Bert Summers Jr.", "lon": -83.998579, "lat": 37.430392, "ADDRESS": "11958 Hwy 89 St.", "CITY": "McKee", "STATE": "KY", "ZIP": 40447, "COUNTY": null, "source": 5, "field_12": null, "field_13": null, "field_14": null, "field_15": null, "field_16": null, "field_17": null, "field_18": null }, "geometry": { "type": "Point", "coordinates": [ -83.998579, 37.4303918 ] } },
{ "type": "Feature", "properties": { "Resource": "FARM", "Industry": null, "Name": "Beth's Blessing", "lon": -83.970483, "lat": 37.319255, "ADDRESS": "PO Box  214", "CITY": "Annville", "STATE": "KY", "ZIP": 40402, "COUNTY": null, "source": 5, "field_12": null, "field_13": null, "field_14": null, "field_15": null, "field_16": null, "field_17": null, "field_18": null }, "geometry": { "type": "Point", "coordinates": [ -83.9704832, 37.3192547 ] } },
{ "type": "Feature", "properties": { "Resource": "FARM", "Industry": null, "Name": "Bingham's Homeplace Farm", "lon": -83.887828, "lat": 37.393180, "ADDRESS": "660 Upper Blackwater Rd", "CITY": "Tyner", "STATE": "KY", "ZIP": 40486, "COUNTY": null, "source": 5, "field_12": null, "field_13": null, "field_14": null, "field_15": null, "field_16": null, "field_17": null, "field_18": null }, "geometry": { "type": "Point", "coordinates": [ -83.887828, 37.3931803 ] } },
{ "type": "Feature", "properties": { "Resource": "FARM", "Industry": null, "Name": "Birchfield's & Birchfield's Farm", "lon": -83.455010, "lat": 37.728984, "ADDRESS": "2574 KY 1812", "CITY": "Campton", "STATE": "KY", "ZIP": 41301, "COUNTY": null, "source": 5, "field_12": null, "field_13": null, "field_14": null, "field_15": null, "field_16": null, "field_17": null, "field_18": null }, "geometry": { "type": "Point", "coordinates": [ -83.4550098, 37.7289836 ] } },
{ "type": "Feature", "properties": { "Resource": "FARM", "Industry": null, "Name": "Black Barn Produce", "lon": -82.740797, "lat": 37.873376, "ADDRESS": "188 SR 3224", "CITY": "River", "STATE": "KY", "ZIP": 41254, "COUNTY": null, "source": 5, "field_12": null, "field_13": null, "field_14": null, "field_15": null, "field_16": null, "field_17": null, "field_18": null }, "geometry": { "type": "Point", "coordinates": [ -82.7407975, 37.8733759 ] } },
{ "type": "Feature", "properties": { "Resource": "FARM", "Industry": null, "Name": "Blake's Natural Foods", "lon": -84.080680, "lat": 37.424834, "ADDRESS": "732 S Tree Tower Rd", "CITY": "Sandgap", "STATE": "KY", "ZIP": 40481, "COUNTY": null, "source": 5, "field_12": null, "field_13": null, "field_14": null, "field_15": null, "field_16": null, "field_17": null, "field_18": null }, "geometry": { "type": "Point", "coordinates": [ -84.0806796, 37.4248343 ] } },
{ "type": "Feature", "properties": { "Resource": "FARM", "Industry": null, "Name": "Blankenship Farms", "lon": -84.163445, "lat": 37.117088, "ADDRESS": "285 Adams Rd", "CITY": "London", "STATE": "KY", "ZIP": 40741, "COUNTY": null, "source": 5, "field_12": null, "field_13": null, "field_14": null, "field_15": null, "field_16": null, "field_17": null, "field_18": null }, "geometry": { "type": "Point", "coordinates": [ -84.1634451, 37.1170884 ] } },
{ "type": "Feature", "properties": { "Resource": "FARM", "Industry": null, "Name": "Blevins Farm", "lon": -82.870770, "lat": 38.028069, "ADDRESS": "23 apricot Lane", "CITY": "Blaine", "STATE": "KY", "ZIP": 41124, "COUNTY": null, "source": 5, "field_12": null, "field_13": null, "field_14": null, "field_15": null, "field_16": null, "field_17": null, "field_18": null }, "geometry": { "type": "Point", "coordinates": [ -82.87077, 38.0280691 ] } },
{ "type": "Feature", "properties": { "Resource": "FARM", "Industry": null, "Name": "Blevins Farm", "lon": -83.353870, "lat": 37.988185, "ADDRESS": "5350 Hwy 519", "CITY": "West Liberty", "STATE": "KY", "ZIP": 41472, "COUNTY": null, "source": 5, "field_12": null, "field_13": null, "field_14": null, "field_15": null, "field_16": null, "field_17": null, "field_18": null }, "geometry": { "type": "Point", "coordinates": [ -83.3538704, 37.9881851 ] } },
{ "type": "Feature", "properties": { "Resource": "FARM", "Industry": null, "Name": "Blue Stone Farm", "lon": -83.577805, "lat": 37.750049, "ADDRESS": "250 Page Branch Road", "CITY": "Campton", "STATE": "KY", "ZIP": 41301, "COUNTY": null, "source": 5, "field_12": null, "field_13": null, "field_14": null, "field_15": null, "field_16": null, "field_17": null, "field_18": null }, "geometry": { "type": "Point", "coordinates": [ -83.5778055, 37.7500489 ] } },
{ "type": "Feature", "properties": { "Resource": "FARM", "Industry": null, "Name": "Blue Sunrise Farms", "lon": -84.586087, "lat": 37.263261, "ADDRESS": "300 Walter Floyd Rd", "CITY": "Eubank", "STATE": "KY", "ZIP": 42567, "COUNTY": null, "source": 5, "field_12": null, "field_13": null, "field_14": null, "field_15": null, "field_16": null, "field_17": null, "field_18": null }, "geometry": { "type": "Point", "coordinates": [ -84.5860869, 37.263261 ] } },
{ "type": "Feature", "properties": { "Resource": "FARM", "Industry": null, "Name": "Bluebird Meadow Farm", "lon": -84.176491, "lat": 37.006760, "ADDRESS": "309 Keavy Craigs Creek Road", "CITY": "London", "STATE": "KY", "ZIP": 40744, "COUNTY": null, "source": 5, "field_12": null, "field_13": null, "field_14": null, "field_15": null, "field_16": null, "field_17": null, "field_18": null }, "geometry": { "type": "Point", "coordinates": [ -84.1764907, 37.0067598 ] } },
{ "type": "Feature", "properties": { "Resource": "FARM", "Industry": null, "Name": "Bowling & Parrutt Farrius", "lon": -84.017602, "lat": 37.338180, "ADDRESS": "99 Langdon Rd.", "CITY": "Annville", "STATE": "KY", "ZIP": 40402, "COUNTY": null, "source": 5, "field_12": null, "field_13": null, "field_14": null, "field_15": null, "field_16": null, "field_17": null, "field_18": null }, "geometry": { "type": "Point", "coordinates": [ -84.0176019, 37.3381803 ] } },
{ "type": "Feature", "properties": { "Resource": "FARM", "Industry": null, "Name": "Bowling Farm", "lon": -83.674990, "lat": 37.475790, "ADDRESS": "1581 KY 28", "CITY": "Booneville", "STATE": "KY", "ZIP": 41314, "COUNTY": null, "source": 5, "field_12": null, "field_13": null, "field_14": null, "field_15": null, "field_16": null, "field_17": null, "field_18": null }, "geometry": { "type": "Point", "coordinates": [ -83.6749897, 37.4757903 ] } },
{ "type": "Feature", "properties": { "Resource": "FARM", "Industry": null, "Name": "Bowlling & Parrett Farms", "lon": -84.017602, "lat": 37.338180, "ADDRESS": "99 Langdan Rd", "CITY": "Annville", "STATE": "KY", "ZIP": 40402, "COUNTY": null, "source": 5, "field_12": null, "field_13": null, "field_14": null, "field_15": null, "field_16": null, "field_17": null, "field_18": null }, "geometry": { "type": "Point", "coordinates": [ -84.0176019, 37.3381803 ] } },
{ "type": "Feature", "properties": { "Resource": "FARM", "Industry": null, "Name": "Brashear Farm", "lon": -83.083811, "lat": 37.128839, "ADDRESS": "12463 Hwy 7 S", "CITY": "Cornettsville", "STATE": "KY", "ZIP": 41731, "COUNTY": null, "source": 5, "field_12": null, "field_13": null, "field_14": null, "field_15": null, "field_16": null, "field_17": null, "field_18": null }, "geometry": { "type": "Point", "coordinates": [ -83.0838112, 37.1288386 ] } },
{ "type": "Feature", "properties": { "Resource": "FARM", "Industry": null, "Name": "Bread And Butter Farm", "lon": -82.851338, "lat": 37.120029, "ADDRESS": "80 Whitco Loop", "CITY": "Whitesburg", "STATE": "KY", "ZIP": 41858, "COUNTY": null, "source": 5, "field_12": null, "field_13": null, "field_14": null, "field_15": null, "field_16": null, "field_17": null, "field_18": null }, "geometry": { "type": "Point", "coordinates": [ -82.8513385, 37.1200289 ] } },
{ "type": "Feature", "properties": { "Resource": "FARM", "Industry": null, "Name": "Brewer & Trimble Farm", "lon": -83.547409, "lat": 37.734253, "ADDRESS": "PO Box 261", "CITY": "Campton", "STATE": "KY", "ZIP": 41301, "COUNTY": null, "source": 5, "field_12": null, "field_13": null, "field_14": null, "field_15": null, "field_16": null, "field_17": null, "field_18": null }, "geometry": { "type": "Point", "coordinates": [ -83.547409, 37.7342526 ] } },
{ "type": "Feature", "properties": { "Resource": "FARM", "Industry": null, "Name": "Brian Conn", "lon": -82.763455, "lat": 37.728686, "ADDRESS": "5204 Ky Rt 321", "CITY": "Prestonsburg", "STATE": "KY", "ZIP": 41653, "COUNTY": null, "source": 5, "field_12": null, "field_13": null, "field_14": null, "field_15": null, "field_16": null, "field_17": null, "field_18": null }, "geometry": { "type": "Point", "coordinates": [ -82.7634552, 37.7286856 ] } },
{ "type": "Feature", "properties": { "Resource": "FARM", "Industry": null, "Name": "Briary Creek Farms", "lon": -84.586087, "lat": 37.263261, "ADDRESS": "300 Walter Floyd Rd", "CITY": "Eubank", "STATE": "KY", "ZIP": 42567, "COUNTY": null, "source": 5, "field_12": null, "field_13": null, "field_14": null, "field_15": null, "field_16": null, "field_17": null, "field_18": null }, "geometry": { "type": "Point", "coordinates": [ -84.5860869, 37.263261 ] } },
{ "type": "Feature", "properties": { "Resource": "FARM", "Industry": null, "Name": "Brooks Hog Farm", "lon": -83.547409, "lat": 37.734253, "ADDRESS": "PO Box 798", "CITY": "Compton", "STATE": "KY", "ZIP": 41301, "COUNTY": null, "source": 5, "field_12": null, "field_13": null, "field_14": null, "field_15": null, "field_16": null, "field_17": null, "field_18": null }, "geometry": { "type": "Point", "coordinates": [ -83.547409, 37.7342526 ] } },
{ "type": "Feature", "properties": { "Resource": "FARM", "Industry": null, "Name": "Brown Farm Meats", "lon": -83.972773, "lat": 37.678136, "ADDRESS": "485 Sugar Hollow Road", "CITY": "Irvine", "STATE": "KY", "ZIP": 40336, "COUNTY": null, "source": 5, "field_12": null, "field_13": null, "field_14": null, "field_15": null, "field_16": null, "field_17": null, "field_18": null }, "geometry": { "type": "Point", "coordinates": [ -83.9727728, 37.678136 ] } },
{ "type": "Feature", "properties": { "Resource": "FARM", "Industry": null, "Name": "Brush Creek Farms", "lon": -82.877901, "lat": 37.418563, "ADDRESS": "PO Box 121", "CITY": "Mousie", "STATE": "KY", "ZIP": 41839, "COUNTY": null, "source": 5, "field_12": null, "field_13": null, "field_14": null, "field_15": null, "field_16": null, "field_17": null, "field_18": null }, "geometry": { "type": "Point", "coordinates": [ -82.8779013, 37.418563 ] } },
{ "type": "Feature", "properties": { "Resource": "FARM", "Industry": null, "Name": "Bryant Fork Shorthorns", "lon": -83.424920, "lat": 37.871245, "ADDRESS": "489 Bryant Fork Rd", "CITY": "Ezel", "STATE": "KY", "ZIP": 41425, "COUNTY": null, "source": 5, "field_12": null, "field_13": null, "field_14": null, "field_15": null, "field_16": null, "field_17": null, "field_18": null }, "geometry": { "type": "Point", "coordinates": [ -83.4249198, 37.8712453 ] } },
{ "type": "Feature", "properties": { "Resource": "FARM", "Industry": null, "Name": "Buckley Farm", "lon": -82.805084, "lat": 37.622036, "ADDRESS": "6073 Spurlock Creek Rd", "CITY": "Prestonsburg", "STATE": "KY", "ZIP": 41653, "COUNTY": null, "source": 5, "field_12": null, "field_13": null, "field_14": null, "field_15": null, "field_16": null, "field_17": null, "field_18": null }, "geometry": { "type": "Point", "coordinates": [ -82.8050843, 37.6220362 ] } },
{ "type": "Feature", "properties": { "Resource": "FARM", "Industry": null, "Name": "Buffalo Farm", "lon": -84.212821, "lat": 36.872333, "ADDRESS": "8049 Cumberland Falls Hwy.", "CITY": "Corbin", "STATE": "KY", "ZIP": 40701, "COUNTY": null, "source": 5, "field_12": null, "field_13": null, "field_14": null, "field_15": null, "field_16": null, "field_17": null, "field_18": null }, "geometry": { "type": "Point", "coordinates": [ -84.2128208, 36.8723332 ] } },
{ "type": "Feature", "properties": { "Resource": "FARM", "Industry": null, "Name": "Burkesville Farm", "lon": -82.764462, "lat": 37.115211, "ADDRESS": "109 Garden Drive Box 21", "CITY": "Ermine", "STATE": "KY", "ZIP": 41815, "COUNTY": null, "source": 5, "field_12": null, "field_13": null, "field_14": null, "field_15": null, "field_16": null, "field_17": null, "field_18": null }, "geometry": { "type": "Point", "coordinates": [ -82.7644623, 37.1152107 ] } },
{ "type": "Feature", "properties": { "Resource": "FARM", "Industry": null, "Name": "Burnett Farms", "lon": -84.607687, "lat": 37.041927, "ADDRESS": "932 Parkers Mill Rd", "CITY": "Somerset", "STATE": "KY", "ZIP": 42501, "COUNTY": null, "source": 5, "field_12": null, "field_13": null, "field_14": null, "field_15": null, "field_16": null, "field_17": null, "field_18": null }, "geometry": { "type": "Point", "coordinates": [ -84.607687, 37.0419267 ] } },
{ "type": "Feature", "properties": { "Resource": "FARM", "Industry": null, "Name": "Burning Springs Elementary Garden Club", "lon": -83.697224, "lat": 37.086450, "ADDRESS": "91 Keith Lane", "CITY": "Manchester", "STATE": "KY", "ZIP": 40962, "COUNTY": null, "source": 5, "field_12": null, "field_13": null, "field_14": null, "field_15": null, "field_16": null, "field_17": null, "field_18": null }, "geometry": { "type": "Point", "coordinates": [ -83.6972239, 37.0864495 ] } },
{ "type": "Feature", "properties": { "Resource": "FARM", "Industry": null, "Name": "Burton And Sons Angus", "lon": -84.835581, "lat": 37.041545, "ADDRESS": "480 Hominy Hill Road", "CITY": "Nancy", "STATE": "KY", "ZIP": 42544, "COUNTY": null, "source": 5, "field_12": null, "field_13": null, "field_14": null, "field_15": null, "field_16": null, "field_17": null, "field_18": null }, "geometry": { "type": "Point", "coordinates": [ -84.8355811, 37.0415445 ] } },
{ "type": "Feature", "properties": { "Resource": "FARM", "Industry": null, "Name": "C & J Nursery & Berry Farm", "lon": -84.331602, "lat": 37.387862, "ADDRESS": "P.O. Box 62", "CITY": "Renfro Valley", "STATE": "KY", "ZIP": 40473, "COUNTY": null, "source": 5, "field_12": null, "field_13": null, "field_14": null, "field_15": null, "field_16": null, "field_17": null, "field_18": null }, "geometry": { "type": "Point", "coordinates": [ -84.3316024, 37.3878617 ] } },
{ "type": "Feature", "properties": { "Resource": "FARM", "Industry": null, "Name": "C&H Produce", "lon": -84.698477, "lat": 37.288180, "ADDRESS": "299 Devona Lane", "CITY": "Eubank", "STATE": "KY", "ZIP": 42567, "COUNTY": null, "source": 5, "field_12": null, "field_13": null, "field_14": null, "field_15": null, "field_16": null, "field_17": null, "field_18": null }, "geometry": { "type": "Point", "coordinates": [ -84.6984767, 37.2881799 ] } },
{ "type": "Feature", "properties": { "Resource": "FARM", "Industry": null, "Name": "C&W Farms", "lon": -83.770031, "lat": 36.829984, "ADDRESS": "PO Box 590", "CITY": "Flat Lick", "STATE": "KY", "ZIP": 40935, "COUNTY": null, "source": 5, "field_12": null, "field_13": null, "field_14": null, "field_15": null, "field_16": null, "field_17": null, "field_18": null }, "geometry": { "type": "Point", "coordinates": [ -83.7700313, 36.8299842 ] } },
{ "type": "Feature", "properties": { "Resource": "FARM", "Industry": null, "Name": "Campbell's Farm", "lon": -83.675470, "lat": 37.476287, "ADDRESS": "7207 Kentucky 11 South", "CITY": "Booneville", "STATE": "KY", "ZIP": 41314, "COUNTY": null, "source": 5, "field_12": null, "field_13": null, "field_14": null, "field_15": null, "field_16": null, "field_17": null, "field_18": null }, "geometry": { "type": "Point", "coordinates": [ -83.6754702, 37.476287 ] } },
{ "type": "Feature", "properties": { "Resource": "FARM", "Industry": null, "Name": "Canoe Hollow Farm", "lon": -83.320157, "lat": 36.809466, "ADDRESS": "Po Box 408", "CITY": "Grays Knob", "STATE": "KY", "ZIP": 40829, "COUNTY": null, "source": 5, "field_12": null, "field_13": null, "field_14": null, "field_15": null, "field_16": null, "field_17": null, "field_18": null }, "geometry": { "type": "Point", "coordinates": [ -83.3201575, 36.8094664 ] } },
{ "type": "Feature", "properties": { "Resource": "FARM", "Industry": null, "Name": "Carjo Farm", "lon": -84.388522, "lat": 36.668035, "ADDRESS": "219 New Stephens Mill Rd", "CITY": "Pine Knot", "STATE": "KY", "ZIP": 42635, "COUNTY": null, "source": 5, "field_12": null, "field_13": null, "field_14": null, "field_15": null, "field_16": null, "field_17": null, "field_18": null }, "geometry": { "type": "Point", "coordinates": [ -84.388522, 36.6680349 ] } },
{ "type": "Feature", "properties": { "Resource": "FARM", "Industry": null, "Name": "Carnahan Farm", "lon": -83.791664, "lat": 37.174320, "ADDRESS": "1750 Hwy 638", "CITY": "Manchester", "STATE": "KY", "ZIP": 40962, "COUNTY": null, "source": 5, "field_12": null, "field_13": null, "field_14": null, "field_15": null, "field_16": null, "field_17": null, "field_18": null }, "geometry": { "type": "Point", "coordinates": [ -83.7916645, 37.1743203 ] } },
{ "type": "Feature", "properties": { "Resource": "FARM", "Industry": null, "Name": "Cash Knob Farm, LLC", "lon": -84.447408, "lat": 37.250593, "ADDRESS": "1414 Old Ping Road", "CITY": "Somerset", "STATE": "KY", "ZIP": 42503, "COUNTY": null, "source": 5, "field_12": null, "field_13": null, "field_14": null, "field_15": null, "field_16": null, "field_17": null, "field_18": null }, "geometry": { "type": "Point", "coordinates": [ -84.4474082, 37.250593 ] } },
{ "type": "Feature", "properties": { "Resource": "FARM", "Industry": null, "Name": "Cedar Creek Farm", "lon": -84.453847, "lat": 37.129293, "ADDRESS": "294 Cedar Creek Ln", "CITY": "Somerset", "STATE": "KY", "ZIP": 42501, "COUNTY": null, "source": 5, "field_12": null, "field_13": null, "field_14": null, "field_15": null, "field_16": null, "field_17": null, "field_18": null }, "geometry": { "type": "Point", "coordinates": [ -84.4538475, 37.1292932 ] } },
{ "type": "Feature", "properties": { "Resource": "FARM", "Industry": null, "Name": "Challie Bailey", "lon": -83.068782, "lat": 37.752592, "ADDRESS": "PO Box 1855", "CITY": "Salyersville", "STATE": "KY", "ZIP": 41465, "COUNTY": null, "source": 5, "field_12": null, "field_13": null, "field_14": null, "field_15": null, "field_16": null, "field_17": null, "field_18": null }, "geometry": { "type": "Point", "coordinates": [ -83.0687816, 37.7525922 ] } },
{ "type": "Feature", "properties": { "Resource": "FARM", "Industry": null, "Name": "Charlie & Betty Jean Roberts", "lon": -83.674915, "lat": 37.476199, "ADDRESS": "PO Box 114", "CITY": "Booneville", "STATE": "KY", "ZIP": 41314, "COUNTY": null, "source": 5, "field_12": null, "field_13": null, "field_14": null, "field_15": null, "field_16": null, "field_17": null, "field_18": null }, "geometry": { "type": "Point", "coordinates": [ -83.6749145, 37.4761991 ] } },
{ "type": "Feature", "properties": { "Resource": "FARM", "Industry": null, "Name": "Chestnut Ridge Farm", "lon": -84.340492, "lat": 37.352862, "ADDRESS": "PO Box 4091", "CITY": "Mt Vernon", "STATE": "KY", "ZIP": 40456, "COUNTY": null, "source": 5, "field_12": null, "field_13": null, "field_14": null, "field_15": null, "field_16": null, "field_17": null, "field_18": null }, "geometry": { "type": "Point", "coordinates": [ -84.3404919, 37.3528615 ] } },
{ "type": "Feature", "properties": { "Resource": "FARM", "Industry": null, "Name": "Christian Kim Zane", "lon": -82.522732, "lat": 37.476312, "ADDRESS": "S. College St., # 32", "CITY": "Pikeville", "STATE": "KY", "ZIP": 41501, "COUNTY": null, "source": 5, "field_12": null, "field_13": null, "field_14": null, "field_15": null, "field_16": null, "field_17": null, "field_18": null }, "geometry": { "type": "Point", "coordinates": [ -82.5227318, 37.4763115 ] } },
{ "type": "Feature", "properties": { "Resource": "FARM", "Industry": null, "Name": "Circle C Farms", "lon": -82.437484, "lat": 37.605904, "ADDRESS": "926 Stanley Fork", "CITY": "Varney", "STATE": "KY", "ZIP": 41571, "COUNTY": null, "source": 5, "field_12": null, "field_13": null, "field_14": null, "field_15": null, "field_16": null, "field_17": null, "field_18": null }, "geometry": { "type": "Point", "coordinates": [ -82.4374836, 37.6059044 ] } },
{ "type": "Feature", "properties": { "Resource": "FARM", "Industry": null, "Name": "Clark Farm", "lon": -84.086350, "lat": 37.094097, "ADDRESS": "337 Tara Estates", "CITY": "London", "STATE": "KY", "ZIP": 40744, "COUNTY": null, "source": 5, "field_12": null, "field_13": null, "field_14": null, "field_15": null, "field_16": null, "field_17": null, "field_18": null }, "geometry": { "type": "Point", "coordinates": [ -84.0863498, 37.0940975 ] } },
{ "type": "Feature", "properties": { "Resource": "FARM", "Industry": null, "Name": "Clear Fork Farms", "lon": -84.159656, "lat": 36.743417, "ADDRESS": "PO Box 441", "CITY": "Williamsburg", "STATE": "KY", "ZIP": 40769, "COUNTY": null, "source": 5, "field_12": null, "field_13": null, "field_14": null, "field_15": null, "field_16": null, "field_17": null, "field_18": null }, "geometry": { "type": "Point", "coordinates": [ -84.1596561, 36.7434169 ] } },
{ "type": "Feature", "properties": { "Resource": "FARM", "Industry": null, "Name": "Clifton McKinney", "lon": -84.026232, "lat": 37.422348, "ADDRESS": "11650 Highway 89 North", "CITY": "McKee", "STATE": "KY", "ZIP": 40447, "COUNTY": null, "source": 5, "field_12": null, "field_13": null, "field_14": null, "field_15": null, "field_16": null, "field_17": null, "field_18": null }, "geometry": { "type": "Point", "coordinates": [ -84.0262317, 37.4223483 ] } },
{ "type": "Feature", "properties": { "Resource": "FARM", "Industry": null, "Name": "Clinton Bishop Farm", "lon": -83.528342, "lat": 37.440426, "ADDRESS": "Box 222", "CITY": "Booneville", "STATE": "KY", "ZIP": 41314, "COUNTY": null, "source": 5, "field_12": null, "field_13": null, "field_14": null, "field_15": null, "field_16": null, "field_17": null, "field_18": null }, "geometry": { "type": "Point", "coordinates": [ -83.528342, 37.4404261 ] } },
{ "type": "Feature", "properties": { "Resource": "FARM", "Industry": null, "Name": "Clover Creek Farm", "lon": -83.835450, "lat": 36.684402, "ADDRESS": "7676 Hwy 190", "CITY": "Pineville", "STATE": "KY", "ZIP": 40977, "COUNTY": null, "source": 5, "field_12": null, "field_13": null, "field_14": null, "field_15": null, "field_16": null, "field_17": null, "field_18": null }, "geometry": { "type": "Point", "coordinates": [ -83.8354499, 36.684402 ] } },
{ "type": "Feature", "properties": { "Resource": "FARM", "Industry": null, "Name": "Cole Valley Farm", "lon": -83.234865, "lat": 37.297239, "ADDRESS": "34 Shuckybean Hollow", "CITY": "Bonnyman", "STATE": "KY", "ZIP": 41719, "COUNTY": null, "source": 5, "field_12": null, "field_13": null, "field_14": null, "field_15": null, "field_16": null, "field_17": null, "field_18": null }, "geometry": { "type": "Point", "coordinates": [ -83.2348652, 37.2972393 ] } },
{ "type": "Feature", "properties": { "Resource": "FARM", "Industry": null, "Name": "Combs Farm", "lon": -83.136281, "lat": 37.205096, "ADDRESS": "PO Box 205", "CITY": "Jeff", "STATE": "KY", "ZIP": 41751, "COUNTY": null, "source": 5, "field_12": null, "field_13": null, "field_14": null, "field_15": null, "field_16": null, "field_17": null, "field_18": null }, "geometry": { "type": "Point", "coordinates": [ -83.136281, 37.2050956 ] } },
{ "type": "Feature", "properties": { "Resource": "FARM", "Industry": null, "Name": "Corbett Caudill", "lon": -83.190760, "lat": 37.163177, "ADDRESS": "53 Little Wooten Fork Rd", "CITY": "Viper", "STATE": "KY", "ZIP": 41774, "COUNTY": null, "source": 5, "field_12": null, "field_13": null, "field_14": null, "field_15": null, "field_16": null, "field_17": null, "field_18": null }, "geometry": { "type": "Point", "coordinates": [ -83.19076, 37.163177 ] } },
{ "type": "Feature", "properties": { "Resource": "FARM", "Industry": null, "Name": "Country Boy Farm", "lon": -82.759736, "lat": 37.162836, "ADDRESS": "95 Nicks Br Po Box 1052", "CITY": "Thornton", "STATE": "KY", "ZIP": 41855, "COUNTY": null, "source": 5, "field_12": null, "field_13": null, "field_14": null, "field_15": null, "field_16": null, "field_17": null, "field_18": null }, "geometry": { "type": "Point", "coordinates": [ -82.7597359, 37.162836 ] } },
{ "type": "Feature", "properties": { "Resource": "FARM", "Industry": null, "Name": "Cow Creek Farms", "lon": -83.528342, "lat": 37.440426, "ADDRESS": "Box 322", "CITY": "Booneville", "STATE": "KY", "ZIP": 41314, "COUNTY": null, "source": 5, "field_12": null, "field_13": null, "field_14": null, "field_15": null, "field_16": null, "field_17": null, "field_18": null }, "geometry": { "type": "Point", "coordinates": [ -83.528342, 37.4404261 ] } },
{ "type": "Feature", "properties": { "Resource": "FARM", "Industry": null, "Name": "Cox Homestead Farm", "lon": -83.282290, "lat": 38.088907, "ADDRESS": "8174 Highway 711", "CITY": "West Liberty", "STATE": "KY", "ZIP": 41472, "COUNTY": null, "source": 5, "field_12": null, "field_13": null, "field_14": null, "field_15": null, "field_16": null, "field_17": null, "field_18": null }, "geometry": { "type": "Point", "coordinates": [ -83.2822898, 38.088907 ] } },
{ "type": "Feature", "properties": { "Resource": "FARM", "Industry": null, "Name": "Craft Farm", "lon": -83.152365, "lat": 37.215394, "ADDRESS": "29 Craft Lane", "CITY": "Hindman", "STATE": "KY", "ZIP": 41822, "COUNTY": null, "source": 5, "field_12": null, "field_13": null, "field_14": null, "field_15": null, "field_16": null, "field_17": null, "field_18": null }, "geometry": { "type": "Point", "coordinates": [ -83.1523648, 37.2153936 ] } },
{ "type": "Feature", "properties": { "Resource": "FARM", "Industry": null, "Name": "Creekside Farms", "lon": -84.284067, "lat": 37.499481, "ADDRESS": "462 Todd Branch Road", "CITY": "Mt Vernon", "STATE": "KY", "ZIP": 40456, "COUNTY": null, "source": 5, "field_12": null, "field_13": null, "field_14": null, "field_15": null, "field_16": null, "field_17": null, "field_18": null }, "geometry": { "type": "Point", "coordinates": [ -84.2840669, 37.4994809 ] } },
{ "type": "Feature", "properties": { "Resource": "FARM", "Industry": null, "Name": "Cross Creek Farm", "lon": -83.674649, "lat": 37.476760, "ADDRESS": "6598 KY 846", "CITY": "Booneville", "STATE": "KY", "ZIP": 41314, "COUNTY": null, "source": 5, "field_12": null, "field_13": null, "field_14": null, "field_15": null, "field_16": null, "field_17": null, "field_18": null }, "geometry": { "type": "Point", "coordinates": [ -83.6746489, 37.47676 ] } },
{ "type": "Feature", "properties": { "Resource": "FARM", "Industry": null, "Name": "Croucher Farm", "lon": -82.910666, "lat": 37.181315, "ADDRESS": "437 Hwy. 7 South", "CITY": "Jeremiah", "STATE": "KY", "ZIP": 41826, "COUNTY": null, "source": 5, "field_12": null, "field_13": null, "field_14": null, "field_15": null, "field_16": null, "field_17": null, "field_18": null }, "geometry": { "type": "Point", "coordinates": [ -82.9106664, 37.1813154 ] } },
{ "type": "Feature", "properties": { "Resource": "FARM", "Industry": null, "Name": "Cuddle Coop", "lon": -84.235881, "lat": 36.813057, "ADDRESS": "529 Letha Petrey Road", "CITY": "Williamsburg", "STATE": "KY", "ZIP": 40769, "COUNTY": null, "source": 5, "field_12": null, "field_13": null, "field_14": null, "field_15": null, "field_16": null, "field_17": null, "field_18": null }, "geometry": { "type": "Point", "coordinates": [ -84.235881, 36.813057 ] } },
{ "type": "Feature", "properties": { "Resource": "FARM", "Industry": null, "Name": "Cumberland Hydrofarm", "lon": -84.196514, "lat": 37.154912, "ADDRESS": "8379 Russell Dyche Hwy", "CITY": "London", "STATE": "KY", "ZIP": 40741, "COUNTY": null, "source": 5, "field_12": null, "field_13": null, "field_14": null, "field_15": null, "field_16": null, "field_17": null, "field_18": null }, "geometry": { "type": "Point", "coordinates": [ -84.1965142, 37.154912 ] } },
{ "type": "Feature", "properties": { "Resource": "FARM", "Industry": null, "Name": "Cundiff Red Angus", "lon": -84.748000, "lat": 37.071742, "ADDRESS": "PO Box 429", "CITY": "Nancy", "STATE": "KY", "ZIP": 42544, "COUNTY": null, "source": 5, "field_12": null, "field_13": null, "field_14": null, "field_15": null, "field_16": null, "field_17": null, "field_18": null }, "geometry": { "type": "Point", "coordinates": [ -84.7479996, 37.0717419 ] } },
{ "type": "Feature", "properties": { "Resource": "FARM", "Industry": null, "Name": "D & D Farm", "lon": -83.346517, "lat": 37.803321, "ADDRESS": "370 Cabin Creek Rd", "CITY": "Grassy Creek", "STATE": "KY", "ZIP": 41352, "COUNTY": null, "source": 5, "field_12": null, "field_13": null, "field_14": null, "field_15": null, "field_16": null, "field_17": null, "field_18": null }, "geometry": { "type": "Point", "coordinates": [ -83.3465168, 37.8033211 ] } },
{ "type": "Feature", "properties": { "Resource": "FARM", "Industry": null, "Name": "D & F Farms", "lon": -84.588402, "lat": 37.184095, "ADDRESS": "2637 East Hwy 635", "CITY": "Science Hill", "STATE": "KY", "ZIP": 42553, "COUNTY": null, "source": 5, "field_12": null, "field_13": null, "field_14": null, "field_15": null, "field_16": null, "field_17": null, "field_18": null }, "geometry": { "type": "Point", "coordinates": [ -84.5884017, 37.1840954 ] } },
{ "type": "Feature", "properties": { "Resource": "FARM", "Industry": null, "Name": "D&C Farm", "lon": -83.259622, "lat": 37.921476, "ADDRESS": "PO Box 381", "CITY": "West Liberty", "STATE": "KY", "ZIP": 41472, "COUNTY": null, "source": 5, "field_12": null, "field_13": null, "field_14": null, "field_15": null, "field_16": null, "field_17": null, "field_18": null }, "geometry": { "type": "Point", "coordinates": [ -83.2596216, 37.9214758 ] } },
{ "type": "Feature", "properties": { "Resource": "FARM", "Industry": null, "Name": "Daggletail Farm", "lon": -83.998579, "lat": 37.430392, "ADDRESS": "6020 Highway 89 S", "CITY": "Mckee", "STATE": "KY", "ZIP": 40447, "COUNTY": null, "source": 5, "field_12": null, "field_13": null, "field_14": null, "field_15": null, "field_16": null, "field_17": null, "field_18": null }, "geometry": { "type": "Point", "coordinates": [ -83.998579, 37.4303918 ] } },
{ "type": "Feature", "properties": { "Resource": "FARM", "Industry": null, "Name": "David Brant Isaacs", "lon": -83.945295, "lat": 37.418730, "ADDRESS": "73 Bundy Lane", "CITY": "McKee", "STATE": "KY", "ZIP": 40447, "COUNTY": null, "source": 5, "field_12": null, "field_13": null, "field_14": null, "field_15": null, "field_16": null, "field_17": null, "field_18": null }, "geometry": { "type": "Point", "coordinates": [ -83.9452952, 37.4187297 ] } },
{ "type": "Feature", "properties": { "Resource": "FARM", "Industry": null, "Name": "Davis Farm", "lon": -84.134841, "lat": 36.786850, "ADDRESS": "311 Blakes Fork Rd", "CITY": "Williamsburg", "STATE": "KY", "ZIP": 40769, "COUNTY": null, "source": 5, "field_12": null, "field_13": null, "field_14": null, "field_15": null, "field_16": null, "field_17": null, "field_18": null }, "geometry": { "type": "Point", "coordinates": [ -84.1348413, 36.7868498 ] } },
{ "type": "Feature", "properties": { "Resource": "FARM", "Industry": null, "Name": "Davis Farms", "lon": -82.812133, "lat": 37.929819, "ADDRESS": "3317 Ky Rt 3387", "CITY": "Stambaugh", "STATE": "KY", "ZIP": 41257, "COUNTY": null, "source": 5, "field_12": null, "field_13": null, "field_14": null, "field_15": null, "field_16": null, "field_17": null, "field_18": null }, "geometry": { "type": "Point", "coordinates": [ -82.8121331, 37.9298192 ] } },
{ "type": "Feature", "properties": { "Resource": "FARM", "Industry": null, "Name": "Donald & L. Marie McClure", "lon": -83.547409, "lat": 37.734253, "ADDRESS": "P O Box 823", "CITY": "Campton", "STATE": "KY", "ZIP": 41301, "COUNTY": null, "source": 5, "field_12": null, "field_13": null, "field_14": null, "field_15": null, "field_16": null, "field_17": null, "field_18": null }, "geometry": { "type": "Point", "coordinates": [ -83.547409, 37.7342526 ] } },
{ "type": "Feature", "properties": { "Resource": "FARM", "Industry": null, "Name": "Donnie Wright", "lon": -83.074292, "lat": 37.885971, "ADDRESS": "78 Stingy Fork Road", "CITY": "West Liberty", "STATE": "KY", "ZIP": 41472, "COUNTY": null, "source": 5, "field_12": null, "field_13": null, "field_14": null, "field_15": null, "field_16": null, "field_17": null, "field_18": null }, "geometry": { "type": "Point", "coordinates": [ -83.0742921, 37.8859711 ] } },
{ "type": "Feature", "properties": { "Resource": "FARM", "Industry": null, "Name": "Donnie's Berries-Veggies", "lon": -83.646221, "lat": 37.791115, "ADDRESS": "13 Collinswood Trail", "CITY": "Pine Ridge", "STATE": "KY", "ZIP": 41360, "COUNTY": null, "source": 5, "field_12": null, "field_13": null, "field_14": null, "field_15": null, "field_16": null, "field_17": null, "field_18": null }, "geometry": { "type": "Point", "coordinates": [ -83.6462211, 37.7911153 ] } },
{ "type": "Feature", "properties": { "Resource": "FARM", "Industry": null, "Name": "Double A Farm", "lon": -83.931176, "lat": 37.031983, "ADDRESS": "1359 Matt Baker Road", "CITY": "London", "STATE": "KY", "ZIP": 40744, "COUNTY": null, "source": 5, "field_12": null, "field_13": null, "field_14": null, "field_15": null, "field_16": null, "field_17": null, "field_18": null }, "geometry": { "type": "Point", "coordinates": [ -83.9311757, 37.031983 ] } },
{ "type": "Feature", "properties": { "Resource": "FARM", "Industry": null, "Name": "Double Hart Farm", "lon": -84.192698, "lat": 36.887195, "ADDRESS": "6550 Cumberland Falls Rd", "CITY": "Corbin (Whitley)", "STATE": "KY", "ZIP": 40701, "COUNTY": null, "source": 5, "field_12": null, "field_13": null, "field_14": null, "field_15": null, "field_16": null, "field_17": null, "field_18": null }, "geometry": { "type": "Point", "coordinates": [ -84.1926977, 36.8871955 ] } },
{ "type": "Feature", "properties": { "Resource": "FARM", "Industry": null, "Name": "Double R Farms", "lon": -85.493109, "lat": 37.264250, "ADDRESS": "900 School Rd", "CITY": "Nancy", "STATE": "KY", "ZIP": 42544, "COUNTY": null, "source": 5, "field_12": null, "field_13": null, "field_14": null, "field_15": null, "field_16": null, "field_17": null, "field_18": null }, "geometry": { "type": "Point", "coordinates": [ -85.4931089, 37.2642499 ] } },
{ "type": "Feature", "properties": { "Resource": "FARM", "Industry": null, "Name": "Double T Farms", "lon": -84.647361, "lat": 37.181182, "ADDRESS": "34 Linda Lou Lane", "CITY": "Science Hill", "STATE": "KY", "ZIP": 42553, "COUNTY": null, "source": 5, "field_12": null, "field_13": null, "field_14": null, "field_15": null, "field_16": null, "field_17": null, "field_18": null }, "geometry": { "type": "Point", "coordinates": [ -84.6473606, 37.181182 ] } },
{ "type": "Feature", "properties": { "Resource": "FARM", "Industry": null, "Name": "Dudley Farm", "lon": -82.230502, "lat": 37.654342, "ADDRESS": "4042 St. Highway 292 E", "CITY": "Burnwell", "STATE": "KY", "ZIP": 41514, "COUNTY": null, "source": 5, "field_12": null, "field_13": null, "field_14": null, "field_15": null, "field_16": null, "field_17": null, "field_18": null }, "geometry": { "type": "Point", "coordinates": [ -82.2305015, 37.6543417 ] } },
{ "type": "Feature", "properties": { "Resource": "FARM", "Industry": null, "Name": "Dyer Family Farm", "lon": -83.903236, "lat": 37.317315, "ADDRESS": "2262 Hwy 3443", "CITY": "Annville", "STATE": "KY", "ZIP": 40402, "COUNTY": null, "source": 5, "field_12": null, "field_13": null, "field_14": null, "field_15": null, "field_16": null, "field_17": null, "field_18": null }, "geometry": { "type": "Point", "coordinates": [ -83.9032364, 37.3173145 ] } },
{ "type": "Feature", "properties": { "Resource": "FARM", "Industry": null, "Name": "E & B Farms", "lon": -84.063271, "lat": 37.253614, "ADDRESS": "1001 Highway 578", "CITY": "East Bernstadt", "STATE": "KY", "ZIP": 40729, "COUNTY": null, "source": 5, "field_12": null, "field_13": null, "field_14": null, "field_15": null, "field_16": null, "field_17": null, "field_18": null }, "geometry": { "type": "Point", "coordinates": [ -84.0632713, 37.2536137 ] } },
{ "type": "Feature", "properties": { "Resource": "FARM", "Industry": null, "Name": "East Fork Farm", "lon": -82.736772, "lat": 38.219929, "ADDRESS": "198 Hwy 1496", "CITY": "Louisa", "STATE": "KY", "ZIP": 41230, "COUNTY": null, "source": 5, "field_12": null, "field_13": null, "field_14": null, "field_15": null, "field_16": null, "field_17": null, "field_18": null }, "geometry": { "type": "Point", "coordinates": [ -82.7367724, 38.2199289 ] } },
{ "type": "Feature", "properties": { "Resource": "FARM", "Industry": null, "Name": "Edwards Farm", "lon": -83.422877, "lat": 37.407792, "ADDRESS": "2320 Highway 1933", "CITY": "Jackson", "STATE": "KY", "ZIP": 41339, "COUNTY": null, "source": 5, "field_12": null, "field_13": null, "field_14": null, "field_15": null, "field_16": null, "field_17": null, "field_18": null }, "geometry": { "type": "Point", "coordinates": [ -83.4228768, 37.4077918 ] } },
{ "type": "Feature", "properties": { "Resource": "FARM", "Industry": null, "Name": "EK To The 3rd", "lon": -82.648591, "lat": 37.373029, "ADDRESS": "35 Tackett Branch Road", "CITY": "Virgie", "STATE": "KY", "ZIP": 41572, "COUNTY": null, "source": 5, "field_12": null, "field_13": null, "field_14": null, "field_15": null, "field_16": null, "field_17": null, "field_18": null }, "geometry": { "type": "Point", "coordinates": [ -82.6485912, 37.3730286 ] } },
{ "type": "Feature", "properties": { "Resource": "FARM", "Industry": null, "Name": "Elizabeth Culton", "lon": -84.126601, "lat": 37.504001, "ADDRESS": "267 Azbill Rd", "CITY": "McKee", "STATE": "KY", "ZIP": 40447, "COUNTY": null, "source": 5, "field_12": null, "field_13": null, "field_14": null, "field_15": null, "field_16": null, "field_17": null, "field_18": null }, "geometry": { "type": "Point", "coordinates": [ -84.1266014, 37.5040009 ] } },
{ "type": "Feature", "properties": { "Resource": "FARM", "Industry": null, "Name": "Elkins' Curly Tail Farm", "lon": -84.348833, "lat": 37.464047, "ADDRESS": "7604 Brindle Ridge Road", "CITY": "Mt Vernon", "STATE": "KY", "ZIP": 40456, "COUNTY": null, "source": 5, "field_12": null, "field_13": null, "field_14": null, "field_15": null, "field_16": null, "field_17": null, "field_18": null }, "geometry": { "type": "Point", "coordinates": [ -84.3488325, 37.4640469 ] } },
{ "type": "Feature", "properties": { "Resource": "FARM", "Industry": null, "Name": "Emerald Lake Farm", "lon": -83.993771, "lat": 37.819880, "ADDRESS": "2065 Lilly Ferry Rd", "CITY": "Irvine", "STATE": "KY", "ZIP": 40336, "COUNTY": null, "source": 5, "field_12": null, "field_13": null, "field_14": null, "field_15": null, "field_16": null, "field_17": null, "field_18": null }, "geometry": { "type": "Point", "coordinates": [ -83.9937713, 37.8198804 ] } },
{ "type": "Feature", "properties": { "Resource": "FARM", "Industry": null, "Name": "End of the Road Farm", "lon": -84.470494, "lat": 36.723412, "ADDRESS": "P.O. Box 192", "CITY": "Whitley City", "STATE": "KY", "ZIP": 42653, "COUNTY": null, "source": 5, "field_12": null, "field_13": null, "field_14": null, "field_15": null, "field_16": null, "field_17": null, "field_18": null }, "geometry": { "type": "Point", "coordinates": [ -84.4704942, 36.7234118 ] } },
{ "type": "Feature", "properties": { "Resource": "FARM", "Industry": null, "Name": "Evening Shade", "lon": -84.133178, "lat": 37.084446, "ADDRESS": "2522 W Laurel Rd", "CITY": "London", "STATE": "KY", "ZIP": 40741, "COUNTY": null, "source": 5, "field_12": null, "field_13": null, "field_14": null, "field_15": null, "field_16": null, "field_17": null, "field_18": null }, "geometry": { "type": "Point", "coordinates": [ -84.1331782, 37.0844462 ] } },
{ "type": "Feature", "properties": { "Resource": "FARM", "Industry": null, "Name": "Fannin's Vegetables", "lon": -83.288575, "lat": 37.894002, "ADDRESS": "2140 Hwy 460 W", "CITY": "West Liberty", "STATE": "KY", "ZIP": 41472, "COUNTY": null, "source": 5, "field_12": null, "field_13": null, "field_14": null, "field_15": null, "field_16": null, "field_17": null, "field_18": null }, "geometry": { "type": "Point", "coordinates": [ -83.2885751, 37.894002 ] } },
{ "type": "Feature", "properties": { "Resource": "FARM", "Industry": null, "Name": "Farris Riley", "lon": -83.512861, "lat": 37.352351, "ADDRESS": "478 Freemon Fork Rd", "CITY": "Buckhorn", "STATE": "KY", "ZIP": 41721, "COUNTY": null, "source": 5, "field_12": null, "field_13": null, "field_14": null, "field_15": null, "field_16": null, "field_17": null, "field_18": null }, "geometry": { "type": "Point", "coordinates": [ -83.5128606, 37.3523508 ] } },
{ "type": "Feature", "properties": { "Resource": "FARM", "Industry": null, "Name": "Faulkner Bent Farm", "lon": -84.159656, "lat": 36.743417, "ADDRESS": "Pobox 207", "CITY": "Williamsburg", "STATE": "KY", "ZIP": 40769, "COUNTY": null, "source": 5, "field_12": null, "field_13": null, "field_14": null, "field_15": null, "field_16": null, "field_17": null, "field_18": null }, "geometry": { "type": "Point", "coordinates": [ -84.1596561, 36.7434169 ] } },
{ "type": "Feature", "properties": { "Resource": "FARM", "Industry": null, "Name": "Ferguson Farm", "lon": -83.168546, "lat": 36.859161, "ADDRESS": "304 Redbud Hill", "CITY": "Evarts", "STATE": "KY", "ZIP": 40828, "COUNTY": null, "source": 5, "field_12": null, "field_13": null, "field_14": null, "field_15": null, "field_16": null, "field_17": null, "field_18": null }, "geometry": { "type": "Point", "coordinates": [ -83.1685461, 36.8591611 ] } },
{ "type": "Feature", "properties": { "Resource": "FARM", "Industry": null, "Name": "Fisher Farms", "lon": -82.813675, "lat": 37.089198, "ADDRESS": "1988 Hwy 2035", "CITY": "Whitesburg", "STATE": "KY", "ZIP": 41858, "COUNTY": null, "source": 5, "field_12": null, "field_13": null, "field_14": null, "field_15": null, "field_16": null, "field_17": null, "field_18": null }, "geometry": { "type": "Point", "coordinates": [ -82.813675, 37.0891977 ] } },
{ "type": "Feature", "properties": { "Resource": "FARM", "Industry": null, "Name": "Foggy Mountain Farm", "lon": -82.534074, "lat": 37.404320, "ADDRESS": "1190 West Sookeys Creek", "CITY": "Pikeville", "STATE": "KY", "ZIP": 41501, "COUNTY": null, "source": 5, "field_12": null, "field_13": null, "field_14": null, "field_15": null, "field_16": null, "field_17": null, "field_18": null }, "geometry": { "type": "Point", "coordinates": [ -82.5340742, 37.4043202 ] } },
{ "type": "Feature", "properties": { "Resource": "FARM", "Industry": null, "Name": "Foggy Mountain Mill  Co.", "lon": -83.706860, "lat": 37.571753, "ADDRESS": "PO Box 406", "CITY": "Beattyville", "STATE": "KY", "ZIP": 41311, "COUNTY": null, "source": 5, "field_12": null, "field_13": null, "field_14": null, "field_15": null, "field_16": null, "field_17": null, "field_18": null }, "geometry": { "type": "Point", "coordinates": [ -83.7068597, 37.5717532 ] } },
{ "type": "Feature", "properties": { "Resource": "FARM", "Industry": null, "Name": "Four Petal Farm", "lon": -82.519902, "lat": 37.481926, "ADDRESS": "261 Sycamore St", "CITY": "Pikeville", "STATE": "KY", "ZIP": 41501, "COUNTY": null, "source": 5, "field_12": null, "field_13": null, "field_14": null, "field_15": null, "field_16": null, "field_17": null, "field_18": null }, "geometry": { "type": "Point", "coordinates": [ -82.519902, 37.481926 ] } },
{ "type": "Feature", "properties": { "Resource": "FARM", "Industry": null, "Name": "Fouts & Fouts Farm", "lon": -84.045880, "lat": 37.172952, "ADDRESS": "4214 Old Salem Rd", "CITY": "London", "STATE": "KY", "ZIP": 40741, "COUNTY": null, "source": 5, "field_12": null, "field_13": null, "field_14": null, "field_15": null, "field_16": null, "field_17": null, "field_18": null }, "geometry": { "type": "Point", "coordinates": [ -84.04588, 37.1729524 ] } },
{ "type": "Feature", "properties": { "Resource": "FARM", "Industry": null, "Name": "Fraley Farm", "lon": -84.159656, "lat": 36.743417, "ADDRESS": "PO Box 668", "CITY": "Williamsburg", "STATE": "KY", "ZIP": 40769, "COUNTY": null, "source": 5, "field_12": null, "field_13": null, "field_14": null, "field_15": null, "field_16": null, "field_17": null, "field_18": null }, "geometry": { "type": "Point", "coordinates": [ -84.1596561, 36.7434169 ] } },
{ "type": "Feature", "properties": { "Resource": "FARM", "Industry": null, "Name": "Frymans Heirlooms", "lon": -82.752631, "lat": 37.468507, "ADDRESS": "274 Minnie Rd.", "CITY": "Minnie", "STATE": "KY", "ZIP": 41651, "COUNTY": null, "source": 5, "field_12": null, "field_13": null, "field_14": null, "field_15": null, "field_16": null, "field_17": null, "field_18": null }, "geometry": { "type": "Point", "coordinates": [ -82.7526311, 37.4685068 ] } },
{ "type": "Feature", "properties": { "Resource": "FARM", "Industry": null, "Name": "Garrison Farm", "lon": -84.165926, "lat": 37.175649, "ADDRESS": "3095 Chaney Ridge Road", "CITY": "London", "STATE": "KY", "ZIP": 40741, "COUNTY": null, "source": 5, "field_12": null, "field_13": null, "field_14": null, "field_15": null, "field_16": null, "field_17": null, "field_18": null }, "geometry": { "type": "Point", "coordinates": [ -84.1659257, 37.1756493 ] } },
{ "type": "Feature", "properties": { "Resource": "FARM", "Industry": null, "Name": "Gentry Farm", "lon": -84.494453, "lat": 37.317008, "ADDRESS": "1040 Arnie Gentry Rd", "CITY": "Eubank", "STATE": "KY", "ZIP": 42567, "COUNTY": null, "source": 5, "field_12": null, "field_13": null, "field_14": null, "field_15": null, "field_16": null, "field_17": null, "field_18": null }, "geometry": { "type": "Point", "coordinates": [ -84.4944527, 37.3170084 ] } },
{ "type": "Feature", "properties": { "Resource": "FARM", "Industry": null, "Name": "Goodthymes Farm", "lon": -84.232880, "lat": 36.687280, "ADDRESS": "6909 West Highway 92", "CITY": "Williamsburg", "STATE": "KY", "ZIP": 40769, "COUNTY": null, "source": 5, "field_12": null, "field_13": null, "field_14": null, "field_15": null, "field_16": null, "field_17": null, "field_18": null }, "geometry": { "type": "Point", "coordinates": [ -84.2328801, 36.6872804 ] } },
{ "type": "Feature", "properties": { "Resource": "FARM", "Industry": null, "Name": "Gracies Farm", "lon": -83.548423, "lat": 37.717534, "ADDRESS": "158 Alexander Dr", "CITY": "Campton", "STATE": "KY", "ZIP": 41301, "COUNTY": null, "source": 5, "field_12": null, "field_13": null, "field_14": null, "field_15": null, "field_16": null, "field_17": null, "field_18": null }, "geometry": { "type": "Point", "coordinates": [ -83.5484226, 37.7175343 ] } },
{ "type": "Feature", "properties": { "Resource": "FARM", "Industry": null, "Name": "Greeley Farms", "lon": -83.682189, "lat": 37.705242, "ADDRESS": "6820 Hwy 1036", "CITY": "Campton", "STATE": "KY", "ZIP": 41301, "COUNTY": null, "source": 5, "field_12": null, "field_13": null, "field_14": null, "field_15": null, "field_16": null, "field_17": null, "field_18": null }, "geometry": { "type": "Point", "coordinates": [ -83.6821888, 37.705242 ] } },
{ "type": "Feature", "properties": { "Resource": "FARM", "Industry": null, "Name": "Gullett Farm", "lon": -82.830245, "lat": 37.655427, "ADDRESS": "415 Woodland Hill", "CITY": "Prestonsburg", "STATE": "KY", "ZIP": 41653, "COUNTY": null, "source": 5, "field_12": null, "field_13": null, "field_14": null, "field_15": null, "field_16": null, "field_17": null, "field_18": null }, "geometry": { "type": "Point", "coordinates": [ -82.8302453, 37.655427 ] } },
{ "type": "Feature", "properties": { "Resource": "FARM", "Industry": null, "Name": "Hail Farm", "lon": -84.521205, "lat": 37.178730, "ADDRESS": "116 George Whitis Rd", "CITY": "Somerset", "STATE": "KY", "ZIP": 42501, "COUNTY": null, "source": 5, "field_12": null, "field_13": null, "field_14": null, "field_15": null, "field_16": null, "field_17": null, "field_18": null }, "geometry": { "type": "Point", "coordinates": [ -84.521205, 37.17873 ] } },
{ "type": "Feature", "properties": { "Resource": "FARM", "Industry": null, "Name": "Hall Farms", "lon": -84.681410, "lat": 37.200373, "ADDRESS": "3550 West Highway 635", "CITY": "Science Hill", "STATE": "KY", "ZIP": 42553, "COUNTY": null, "source": 5, "field_12": null, "field_13": null, "field_14": null, "field_15": null, "field_16": null, "field_17": null, "field_18": null }, "geometry": { "type": "Point", "coordinates": [ -84.68141, 37.2003734 ] } },
{ "type": "Feature", "properties": { "Resource": "FARM", "Industry": null, "Name": "Halsey Farm", "lon": -83.528424, "lat": 37.745274, "ADDRESS": "5823 KY 746", "CITY": "Campton", "STATE": "KY", "ZIP": 41301, "COUNTY": null, "source": 5, "field_12": null, "field_13": null, "field_14": null, "field_15": null, "field_16": null, "field_17": null, "field_18": null }, "geometry": { "type": "Point", "coordinates": [ -83.5284235, 37.7452742 ] } },
{ "type": "Feature", "properties": { "Resource": "FARM", "Industry": null, "Name": "Hamblin Farm", "lon": -84.138919, "lat": 36.986411, "ADDRESS": "2141 Rooks Branch Rd", "CITY": "Keavy", "STATE": "KY", "ZIP": 40737, "COUNTY": null, "source": 5, "field_12": null, "field_13": null, "field_14": null, "field_15": null, "field_16": null, "field_17": null, "field_18": null }, "geometry": { "type": "Point", "coordinates": [ -84.1389185, 36.9864106 ] } },
{ "type": "Feature", "properties": { "Resource": "FARM", "Industry": null, "Name": "Hampshire Farm", "lon": -84.544436, "lat": 37.266736, "ADDRESS": "310 Todd Rd.", "CITY": "Eubank", "STATE": "KY", "ZIP": 42567, "COUNTY": null, "source": 5, "field_12": null, "field_13": null, "field_14": null, "field_15": null, "field_16": null, "field_17": null, "field_18": null }, "geometry": { "type": "Point", "coordinates": [ -84.5444357, 37.266736 ] } },
{ "type": "Feature", "properties": { "Resource": "FARM", "Industry": null, "Name": "Hancock Hamps", "lon": -84.602562, "lat": 37.252762, "ADDRESS": "1255 Estesburg Rd", "CITY": "Eubank", "STATE": "KY", "ZIP": 42567, "COUNTY": null, "source": 5, "field_12": null, "field_13": null, "field_14": null, "field_15": null, "field_16": null, "field_17": null, "field_18": null }, "geometry": { "type": "Point", "coordinates": [ -84.6025616, 37.2527619 ] } },
{ "type": "Feature", "properties": { "Resource": "FARM", "Industry": null, "Name": "Happy Top Farm", "lon": -84.299231, "lat": 37.418775, "ADDRESS": "1406 Wildie Rd. P.O Box 69", "CITY": "Wildie", "STATE": "KY", "ZIP": 40492, "COUNTY": null, "source": 5, "field_12": null, "field_13": null, "field_14": null, "field_15": null, "field_16": null, "field_17": null, "field_18": null }, "geometry": { "type": "Point", "coordinates": [ -84.2992309, 37.4187746 ] } },
{ "type": "Feature", "properties": { "Resource": "FARM", "Industry": null, "Name": "Harmony Acres", "lon": -84.820538, "lat": 37.014153, "ADDRESS": "2194 Ard Ridge Road", "CITY": "Nancy", "STATE": "KY", "ZIP": 42544, "COUNTY": null, "source": 5, "field_12": null, "field_13": null, "field_14": null, "field_15": null, "field_16": null, "field_17": null, "field_18": null }, "geometry": { "type": "Point", "coordinates": [ -84.820538, 37.014153 ] } },
{ "type": "Feature", "properties": { "Resource": "FARM", "Industry": null, "Name": "Harmony Dawn", "lon": -82.860161, "lat": 38.111027, "ADDRESS": "227 McNeil Branch", "CITY": "Webbville", "STATE": "KY", "ZIP": 41180, "COUNTY": null, "source": 5, "field_12": null, "field_13": null, "field_14": null, "field_15": null, "field_16": null, "field_17": null, "field_18": null }, "geometry": { "type": "Point", "coordinates": [ -82.8601605, 38.1110272 ] } },
{ "type": "Feature", "properties": { "Resource": "FARM", "Industry": null, "Name": "Harold Campbell", "lon": -83.193228, "lat": 37.249540, "ADDRESS": "PO Box 13", "CITY": "Hazzard", "STATE": "KY", "ZIP": 41702, "COUNTY": null, "source": 5, "field_12": null, "field_13": null, "field_14": null, "field_15": null, "field_16": null, "field_17": null, "field_18": null }, "geometry": { "type": "Point", "coordinates": [ -83.1932284, 37.24954 ] } },
{ "type": "Feature", "properties": { "Resource": "FARM", "Industry": null, "Name": "Hawkins Farms", "lon": -84.472601, "lat": 37.294169, "ADDRESS": "1705 Bandy Willailla Rd", "CITY": "Eubank", "STATE": "KY", "ZIP": 42567, "COUNTY": null, "source": 5, "field_12": null, "field_13": null, "field_14": null, "field_15": null, "field_16": null, "field_17": null, "field_18": null }, "geometry": { "type": "Point", "coordinates": [ -84.4726015, 37.2941689 ] } },
{ "type": "Feature", "properties": { "Resource": "FARM", "Industry": null, "Name": "Hays Family Farm", "lon": -83.942695, "lat": 37.355181, "ADDRESS": "3542 Mildred Rd", "CITY": "McKee", "STATE": "KY", "ZIP": 40447, "COUNTY": null, "source": 5, "field_12": null, "field_13": null, "field_14": null, "field_15": null, "field_16": null, "field_17": null, "field_18": null }, "geometry": { "type": "Point", "coordinates": [ -83.9426953, 37.3551813 ] } },
{ "type": "Feature", "properties": { "Resource": "FARM", "Industry": null, "Name": "Hazelbrook Farm", "lon": -84.578276, "lat": 37.181974, "ADDRESS": "3707 Stilesville Road", "CITY": "Science Hill", "STATE": "KY", "ZIP": 42553, "COUNTY": null, "source": 5, "field_12": null, "field_13": null, "field_14": null, "field_15": null, "field_16": null, "field_17": null, "field_18": null }, "geometry": { "type": "Point", "coordinates": [ -84.5782761, 37.1819742 ] } },
{ "type": "Feature", "properties": { "Resource": "FARM", "Industry": null, "Name": "Hell Cat Farm Llc", "lon": -83.888814, "lat": 36.866476, "ADDRESS": "PO Box 670", "CITY": "Barbourville", "STATE": "KY", "ZIP": 40906, "COUNTY": null, "source": 5, "field_12": null, "field_13": null, "field_14": null, "field_15": null, "field_16": null, "field_17": null, "field_18": null }, "geometry": { "type": "Point", "coordinates": [ -83.8888138, 36.8664765 ] } },
{ "type": "Feature", "properties": { "Resource": "FARM", "Industry": null, "Name": "Henrietta Sheffel", "lon": -83.367190, "lat": 37.444130, "ADDRESS": "1801 Little Creek Rd", "CITY": "Jackson", "STATE": "KY", "ZIP": 41339, "COUNTY": null, "source": 5, "field_12": null, "field_13": null, "field_14": null, "field_15": null, "field_16": null, "field_17": null, "field_18": null }, "geometry": { "type": "Point", "coordinates": [ -83.3671903, 37.4441302 ] } },
{ "type": "Feature", "properties": { "Resource": "FARM", "Industry": null, "Name": "Hensley Homestead Farm", "lon": -83.108797, "lat": 37.898741, "ADDRESS": "114 Bear Branch Road", "CITY": "West Liberty", "STATE": "KY", "ZIP": 41472, "COUNTY": null, "source": 5, "field_12": null, "field_13": null, "field_14": null, "field_15": null, "field_16": null, "field_17": null, "field_18": null }, "geometry": { "type": "Point", "coordinates": [ -83.108797, 37.898741 ] } },
{ "type": "Feature", "properties": { "Resource": "FARM", "Industry": null, "Name": "HF Farms", "lon": -82.857379, "lat": 37.526648, "ADDRESS": "5472 Rt 850", "CITY": "Prestonsburg", "STATE": "KY", "ZIP": 41653, "COUNTY": null, "source": 5, "field_12": null, "field_13": null, "field_14": null, "field_15": null, "field_16": null, "field_17": null, "field_18": null }, "geometry": { "type": "Point", "coordinates": [ -82.857379, 37.5266482 ] } },
{ "type": "Feature", "properties": { "Resource": "FARM", "Industry": null, "Name": "Hills & Hollar Farm", "lon": -83.710691, "lat": 37.070039, "ADDRESS": "1065 Schoolhouse Branch Rd.", "CITY": "Manchester", "STATE": "KY", "ZIP": 40962, "COUNTY": null, "source": 5, "field_12": null, "field_13": null, "field_14": null, "field_15": null, "field_16": null, "field_17": null, "field_18": null }, "geometry": { "type": "Point", "coordinates": [ -83.710691, 37.070039 ] } },
{ "type": "Feature", "properties": { "Resource": "FARM", "Industry": null, "Name": "Historic McNeils Crossing", "lon": -83.946300, "lat": 36.801903, "ADDRESS": "200 Ky 1530", "CITY": "Barbourville", "STATE": "KY", "ZIP": 40906, "COUNTY": null, "source": 5, "field_12": null, "field_13": null, "field_14": null, "field_15": null, "field_16": null, "field_17": null, "field_18": null }, "geometry": { "type": "Point", "coordinates": [ -83.9463003, 36.8019033 ] } },
{ "type": "Feature", "properties": { "Resource": "FARM", "Industry": null, "Name": "Holland Farm", "lon": -83.522569, "lat": 37.051459, "ADDRESS": "121 Edd Holland", "CITY": "Essie", "STATE": "KY", "ZIP": 40827, "COUNTY": null, "source": 5, "field_12": null, "field_13": null, "field_14": null, "field_15": null, "field_16": null, "field_17": null, "field_18": null }, "geometry": { "type": "Point", "coordinates": [ -83.5225686, 37.0514591 ] } },
{ "type": "Feature", "properties": { "Resource": "FARM", "Industry": null, "Name": "Holliday Farm & Garden", "lon": -83.184737, "lat": 37.382632, "ADDRESS": "18354 Ky Hwy 476", "CITY": "Hazard", "STATE": "KY", "ZIP": 41701, "COUNTY": null, "source": 5, "field_12": null, "field_13": null, "field_14": null, "field_15": null, "field_16": null, "field_17": null, "field_18": null }, "geometry": { "type": "Point", "coordinates": [ -83.1847368, 37.3826318 ] } },
{ "type": "Feature", "properties": { "Resource": "FARM", "Industry": null, "Name": "Home Pickins", "lon": -83.959071, "lat": 37.436420, "ADDRESS": "592 Pilgrims Rest Rd", "CITY": "McKee", "STATE": "KY", "ZIP": 40447, "COUNTY": null, "source": 5, "field_12": null, "field_13": null, "field_14": null, "field_15": null, "field_16": null, "field_17": null, "field_18": null }, "geometry": { "type": "Point", "coordinates": [ -83.9590713, 37.4364197 ] } },
{ "type": "Feature", "properties": { "Resource": "FARM", "Industry": null, "Name": "Honeysuckle Hollow Farm", "lon": -84.284067, "lat": 37.499481, "ADDRESS": "824 Todd Branch Road", "CITY": "Mt Vernon", "STATE": "KY", "ZIP": 40456, "COUNTY": null, "source": 5, "field_12": null, "field_13": null, "field_14": null, "field_15": null, "field_16": null, "field_17": null, "field_18": null }, "geometry": { "type": "Point", "coordinates": [ -84.2840669, 37.4994809 ] } },
{ "type": "Feature", "properties": { "Resource": "FARM", "Industry": null, "Name": "Hood Farms", "lon": -84.524578, "lat": 37.202797, "ADDRESS": "204 Hood Mayfield Ln", "CITY": "Somerset", "STATE": "KY", "ZIP": 42503, "COUNTY": null, "source": 5, "field_12": null, "field_13": null, "field_14": null, "field_15": null, "field_16": null, "field_17": null, "field_18": null }, "geometry": { "type": "Point", "coordinates": [ -84.5245779, 37.2027971 ] } },
{ "type": "Feature", "properties": { "Resource": "FARM", "Industry": null, "Name": "Hope Hill Farms", "lon": -83.892965, "lat": 37.348576, "ADDRESS": "815 Hwy 1431", "CITY": "Tyner", "STATE": "KY", "ZIP": 40486, "COUNTY": null, "source": 5, "field_12": null, "field_13": null, "field_14": null, "field_15": null, "field_16": null, "field_17": null, "field_18": null }, "geometry": { "type": "Point", "coordinates": [ -83.8929647, 37.3485764 ] } },
{ "type": "Feature", "properties": { "Resource": "FARM", "Industry": null, "Name": "Howard's Farm", "lon": -83.259622, "lat": 37.921476, "ADDRESS": "PO Box 592", "CITY": "West Liberty", "STATE": "KY", "ZIP": 41472, "COUNTY": null, "source": 5, "field_12": null, "field_13": null, "field_14": null, "field_15": null, "field_16": null, "field_17": null, "field_18": null }, "geometry": { "type": "Point", "coordinates": [ -83.2596216, 37.9214758 ] } },
{ "type": "Feature", "properties": { "Resource": "FARM", "Industry": null, "Name": "Howell Farm & Greenhouse", "lon": -83.383514, "lat": 37.553146, "ADDRESS": "PO Box 19", "CITY": "Jackson", "STATE": "KY", "ZIP": 41339, "COUNTY": null, "source": 5, "field_12": null, "field_13": null, "field_14": null, "field_15": null, "field_16": null, "field_17": null, "field_18": null }, "geometry": { "type": "Point", "coordinates": [ -83.3835135, 37.5531457 ] } },
{ "type": "Feature", "properties": { "Resource": "FARM", "Industry": null, "Name": "Hudson's Little Farm", "lon": -83.032666, "lat": 37.331764, "ADDRESS": "PO Box 38", "CITY": "Carrie", "STATE": "KY", "ZIP": 41725, "COUNTY": null, "source": 5, "field_12": null, "field_13": null, "field_14": null, "field_15": null, "field_16": null, "field_17": null, "field_18": null }, "geometry": { "type": "Point", "coordinates": [ -83.0326656, 37.3317639 ] } },
{ "type": "Feature", "properties": { "Resource": "FARM", "Industry": null, "Name": "Huff Farm's", "lon": -83.901557, "lat": 37.398650, "ADDRESS": "1352 Highway 1071", "CITY": "Tyner", "STATE": "KY", "ZIP": 40486, "COUNTY": null, "source": 5, "field_12": null, "field_13": null, "field_14": null, "field_15": null, "field_16": null, "field_17": null, "field_18": null }, "geometry": { "type": "Point", "coordinates": [ -83.9015569, 37.3986503 ] } },
{ "type": "Feature", "properties": { "Resource": "FARM", "Industry": null, "Name": "Hurricane Hollow", "lon": -83.294343, "lat": 37.248984, "ADDRESS": "736 Hurricane Rd", "CITY": "Busy", "STATE": "KY", "ZIP": 41723, "COUNTY": null, "source": 5, "field_12": null, "field_13": null, "field_14": null, "field_15": null, "field_16": null, "field_17": null, "field_18": null }, "geometry": { "type": "Point", "coordinates": [ -83.2943433, 37.2489838 ] } },
{ "type": "Feature", "properties": { "Resource": "FARM", "Industry": null, "Name": "I C Nubians", "lon": -83.965369, "lat": 36.830648, "ADDRESS": "9094 KY 459", "CITY": "Barbourville", "STATE": "KY", "ZIP": 40906, "COUNTY": null, "source": 5, "field_12": null, "field_13": null, "field_14": null, "field_15": null, "field_16": null, "field_17": null, "field_18": null }, "geometry": { "type": "Point", "coordinates": [ -83.9653687, 36.8306478 ] } },
{ "type": "Feature", "properties": { "Resource": "FARM", "Industry": null, "Name": "J.R. Farms", "lon": -83.478791, "lat": 37.630023, "ADDRESS": "957 Rose Bend Road", "CITY": "Campton", "STATE": "KY", "ZIP": 41301, "COUNTY": null, "source": 5, "field_12": null, "field_13": null, "field_14": null, "field_15": null, "field_16": null, "field_17": null, "field_18": null }, "geometry": { "type": "Point", "coordinates": [ -83.4787914, 37.6300234 ] } },
{ "type": "Feature", "properties": { "Resource": "FARM", "Industry": null, "Name": "Jade Dragonfly Farm", "lon": -82.851316, "lat": 37.093477, "ADDRESS": "231 Hampton Branch", "CITY": "Whitesburg", "STATE": "KY", "ZIP": 41858, "COUNTY": null, "source": 5, "field_12": null, "field_13": null, "field_14": null, "field_15": null, "field_16": null, "field_17": null, "field_18": null }, "geometry": { "type": "Point", "coordinates": [ -82.8513158, 37.0934768 ] } },
{ "type": "Feature", "properties": { "Resource": "FARM", "Industry": null, "Name": "Jan Mills", "lon": -84.231971, "lat": 36.812136, "ADDRESS": "1783 W Highway 204", "CITY": "Williamsburg", "STATE": "KY", "ZIP": 40769, "COUNTY": null, "source": 5, "field_12": null, "field_13": null, "field_14": null, "field_15": null, "field_16": null, "field_17": null, "field_18": null }, "geometry": { "type": "Point", "coordinates": [ -84.2319706, 36.8121363 ] } },
{ "type": "Feature", "properties": { "Resource": "FARM", "Industry": null, "Name": "Jim Harrison", "lon": -84.053599, "lat": 37.103472, "ADDRESS": "92 Cardinal Hill Lane", "CITY": "London", "STATE": "KY", "ZIP": 40744, "COUNTY": null, "source": 5, "field_12": null, "field_13": null, "field_14": null, "field_15": null, "field_16": null, "field_17": null, "field_18": null }, "geometry": { "type": "Point", "coordinates": [ -84.0535989, 37.1034721 ] } },
{ "type": "Feature", "properties": { "Resource": "FARM", "Industry": null, "Name": "JKL Farm", "lon": -82.729715, "lat": 37.595034, "ADDRESS": "8716 Ky Rt 1428", "CITY": "Allen", "STATE": "KY", "ZIP": 41601, "COUNTY": null, "source": 5, "field_12": null, "field_13": null, "field_14": null, "field_15": null, "field_16": null, "field_17": null, "field_18": null }, "geometry": { "type": "Point", "coordinates": [ -82.7297147, 37.595034 ] } },
{ "type": "Feature", "properties": { "Resource": "FARM", "Industry": null, "Name": "John's Homegrown", "lon": -83.840778, "lat": 36.833282, "ADDRESS": "PO Box 88", "CITY": "Artemus", "STATE": "KY", "ZIP": 40903, "COUNTY": null, "source": 5, "field_12": null, "field_13": null, "field_14": null, "field_15": null, "field_16": null, "field_17": null, "field_18": null }, "geometry": { "type": "Point", "coordinates": [ -83.8407783, 36.8332822 ] } },
{ "type": "Feature", "properties": { "Resource": "FARM", "Industry": null, "Name": "Johnson's Farms", "lon": -83.512428, "lat": 37.488971, "ADDRESS": "84 Johnson Branch Rd.", "CITY": "Booneville", "STATE": "KY", "ZIP": 41314, "COUNTY": null, "source": 5, "field_12": null, "field_13": null, "field_14": null, "field_15": null, "field_16": null, "field_17": null, "field_18": null }, "geometry": { "type": "Point", "coordinates": [ -83.5124277, 37.4889707 ] } },
{ "type": "Feature", "properties": { "Resource": "FARM", "Industry": null, "Name": "Jones' Mountain Top Farms", "lon": -83.160968, "lat": 37.347247, "ADDRESS": "2451 Pigeon Roost Rd", "CITY": "Ary", "STATE": "KY", "ZIP": 41712, "COUNTY": null, "source": 5, "field_12": null, "field_13": null, "field_14": null, "field_15": null, "field_16": null, "field_17": null, "field_18": null }, "geometry": { "type": "Point", "coordinates": [ -83.1609681, 37.3472474 ] } },
{ "type": "Feature", "properties": { "Resource": "FARM", "Industry": null, "Name": "Joy Rose Farm", "lon": -83.488669, "lat": 37.624874, "ADDRESS": "568 Rosebend Rd.", "CITY": "Campton", "STATE": "KY", "ZIP": 41301, "COUNTY": null, "source": 5, "field_12": null, "field_13": null, "field_14": null, "field_15": null, "field_16": null, "field_17": null, "field_18": null }, "geometry": { "type": "Point", "coordinates": [ -83.4886686, 37.6248742 ] } },
{ "type": "Feature", "properties": { "Resource": "FARM", "Industry": null, "Name": "Judy Tillery", "lon": -83.909543, "lat": 37.342089, "ADDRESS": "73 Tyner Loop", "CITY": "Tyner", "STATE": "KY", "ZIP": 40486, "COUNTY": null, "source": 5, "field_12": null, "field_13": null, "field_14": null, "field_15": null, "field_16": null, "field_17": null, "field_18": null }, "geometry": { "type": "Point", "coordinates": [ -83.9095428, 37.3420893 ] } },
{ "type": "Feature", "properties": { "Resource": "FARM", "Industry": null, "Name": "Kendrick Farm", "lon": -82.550501, "lat": 37.628029, "ADDRESS": "10718 State Hwy 194 W", "CITY": "Pikeville", "STATE": "KY", "ZIP": 41501, "COUNTY": null, "source": 5, "field_12": null, "field_13": null, "field_14": null, "field_15": null, "field_16": null, "field_17": null, "field_18": null }, "geometry": { "type": "Point", "coordinates": [ -82.5505014, 37.6280292 ] } },
{ "type": "Feature", "properties": { "Resource": "FARM", "Industry": null, "Name": "Kenneth Neace Farm", "lon": -88.238924, "lat": 36.654499, "ADDRESS": "PO Box 262", "CITY": "Van Cleave", "STATE": "KY", "ZIP": 41385, "COUNTY": null, "source": 5, "field_12": null, "field_13": null, "field_14": null, "field_15": null, "field_16": null, "field_17": null, "field_18": null }, "geometry": { "type": "Point", "coordinates": [ -88.2389242, 36.6544993 ] } },
{ "type": "Feature", "properties": { "Resource": "FARM", "Industry": null, "Name": "Kermit Landrum", "lon": -83.322013, "lat": 37.560317, "ADDRESS": "85 Landrum Rd", "CITY": "Jackson", "STATE": "KY", "ZIP": 41339, "COUNTY": null, "source": 5, "field_12": null, "field_13": null, "field_14": null, "field_15": null, "field_16": null, "field_17": null, "field_18": null }, "geometry": { "type": "Point", "coordinates": [ -83.3220134, 37.5603174 ] } },
{ "type": "Feature", "properties": { "Resource": "FARM", "Industry": null, "Name": "Kirby Farms", "lon": -84.074357, "lat": 37.048786, "ADDRESS": "1494 John Parker Rd.", "CITY": "London", "STATE": "KY", "ZIP": 40744, "COUNTY": null, "source": 5, "field_12": null, "field_13": null, "field_14": null, "field_15": null, "field_16": null, "field_17": null, "field_18": null }, "geometry": { "type": "Point", "coordinates": [ -84.0743569, 37.0487857 ] } },
{ "type": "Feature", "properties": { "Resource": "FARM", "Industry": null, "Name": "L & L Farm\/Apiary", "lon": -84.085961, "lat": 37.320730, "ADDRESS": "2431 Black Lick Rd", "CITY": "McKee", "STATE": "KY", "ZIP": 40447, "COUNTY": null, "source": 5, "field_12": null, "field_13": null, "field_14": null, "field_15": null, "field_16": null, "field_17": null, "field_18": null }, "geometry": { "type": "Point", "coordinates": [ -84.0859613, 37.3207299 ] } },
{ "type": "Feature", "properties": { "Resource": "FARM", "Industry": null, "Name": "Laurel Nursery LLC", "lon": -84.183575, "lat": 36.984185, "ADDRESS": "2198 Level Green Rd", "CITY": "Corbin (Laurel)", "STATE": "KY", "ZIP": 40701, "COUNTY": null, "source": 5, "field_12": null, "field_13": null, "field_14": null, "field_15": null, "field_16": null, "field_17": null, "field_18": null }, "geometry": { "type": "Point", "coordinates": [ -84.1835747, 36.9841848 ] } },
{ "type": "Feature", "properties": { "Resource": "FARM", "Industry": null, "Name": "Lavender Lane Farm", "lon": -84.832888, "lat": 37.117084, "ADDRESS": "544 West Farm", "CITY": "Nancy", "STATE": "KY", "ZIP": 42544, "COUNTY": null, "source": 5, "field_12": null, "field_13": null, "field_14": null, "field_15": null, "field_16": null, "field_17": null, "field_18": null }, "geometry": { "type": "Point", "coordinates": [ -84.8328876, 37.1170841 ] } },
{ "type": "Feature", "properties": { "Resource": "FARM", "Industry": null, "Name": "Lazy Acres Farm", "lon": -84.099848, "lat": 37.013450, "ADDRESS": "411 Old Whitley Road", "CITY": "Lily", "STATE": "KY", "ZIP": 40740, "COUNTY": null, "source": 5, "field_12": null, "field_13": null, "field_14": null, "field_15": null, "field_16": null, "field_17": null, "field_18": null }, "geometry": { "type": "Point", "coordinates": [ -84.0998484, 37.0134503 ] } },
{ "type": "Feature", "properties": { "Resource": "FARM", "Industry": null, "Name": "LB Farms", "lon": -82.503668, "lat": 37.556654, "ADDRESS": "4959 Joes Creek", "CITY": "Pikeville", "STATE": "KY", "ZIP": 41501, "COUNTY": null, "source": 5, "field_12": null, "field_13": null, "field_14": null, "field_15": null, "field_16": null, "field_17": null, "field_18": null }, "geometry": { "type": "Point", "coordinates": [ -82.5036683, 37.556654 ] } },
{ "type": "Feature", "properties": { "Resource": "FARM", "Industry": null, "Name": "Leaning Pine Farms LLC", "lon": -84.590734, "lat": 37.164737, "ADDRESS": "473 Edward Meece Rd", "CITY": "Science Hill", "STATE": "KY", "ZIP": 42553, "COUNTY": null, "source": 5, "field_12": null, "field_13": null, "field_14": null, "field_15": null, "field_16": null, "field_17": null, "field_18": null }, "geometry": { "type": "Point", "coordinates": [ -84.5907338, 37.1647367 ] } },
{ "type": "Feature", "properties": { "Resource": "FARM", "Industry": null, "Name": "Led Plow Homestead", "lon": -84.370806, "lat": 36.616387, "ADDRESS": "175 Hazel Baird Road", "CITY": "Strunk", "STATE": "KY", "ZIP": 42649, "COUNTY": null, "source": 5, "field_12": null, "field_13": null, "field_14": null, "field_15": null, "field_16": null, "field_17": null, "field_18": null }, "geometry": { "type": "Point", "coordinates": [ -84.3708063, 36.6163867 ] } },
{ "type": "Feature", "properties": { "Resource": "FARM", "Industry": null, "Name": "Life Of Riley Farm", "lon": -83.674915, "lat": 37.476199, "ADDRESS": "PO Box 834", "CITY": "Booneville", "STATE": "KY", "ZIP": 41314, "COUNTY": null, "source": 5, "field_12": null, "field_13": null, "field_14": null, "field_15": null, "field_16": null, "field_17": null, "field_18": null }, "geometry": { "type": "Point", "coordinates": [ -83.6749145, 37.4761991 ] } },
{ "type": "Feature", "properties": { "Resource": "FARM", "Industry": null, "Name": "L'il Bo Pup Fiber Farm", "lon": -84.599852, "lat": 37.279328, "ADDRESS": "2645 E Hwy 70", "CITY": "Eubank", "STATE": "KY", "ZIP": 42567, "COUNTY": null, "source": 5, "field_12": null, "field_13": null, "field_14": null, "field_15": null, "field_16": null, "field_17": null, "field_18": null }, "geometry": { "type": "Point", "coordinates": [ -84.5998522, 37.279328 ] } },
{ "type": "Feature", "properties": { "Resource": "FARM", "Industry": null, "Name": "Linkous Farm", "lon": -83.538487, "lat": 37.782226, "ADDRESS": "522 Collaboose Rdg Rd", "CITY": "Campton", "STATE": "KY", "ZIP": 41301, "COUNTY": null, "source": 5, "field_12": null, "field_13": null, "field_14": null, "field_15": null, "field_16": null, "field_17": null, "field_18": null }, "geometry": { "type": "Point", "coordinates": [ -83.5384872, 37.7822258 ] } },
{ "type": "Feature", "properties": { "Resource": "FARM", "Industry": null, "Name": "Lisa Asher", "lon": -83.925605, "lat": 37.072998, "ADDRESS": "3656 Blackwater Rd", "CITY": "London", "STATE": "KY", "ZIP": 40741, "COUNTY": null, "source": 5, "field_12": null, "field_13": null, "field_14": null, "field_15": null, "field_16": null, "field_17": null, "field_18": null }, "geometry": { "type": "Point", "coordinates": [ -83.9256052, 37.0729978 ] } },
{ "type": "Feature", "properties": { "Resource": "FARM", "Industry": null, "Name": "Little Dry Fork Farm", "lon": -82.841054, "lat": 37.156746, "ADDRESS": "61 Little Dry Fork", "CITY": "Whitesburg", "STATE": "KY", "ZIP": 41858, "COUNTY": null, "source": 5, "field_12": null, "field_13": null, "field_14": null, "field_15": null, "field_16": null, "field_17": null, "field_18": null }, "geometry": { "type": "Point", "coordinates": [ -82.8410538, 37.1567464 ] } },
{ "type": "Feature", "properties": { "Resource": "FARM", "Industry": null, "Name": "Little Farm", "lon": -83.581803, "lat": 37.476694, "ADDRESS": "526 Right Frk Spencer Frk", "CITY": "Booneville", "STATE": "KY", "ZIP": 41314, "COUNTY": null, "source": 5, "field_12": null, "field_13": null, "field_14": null, "field_15": null, "field_16": null, "field_17": null, "field_18": null }, "geometry": { "type": "Point", "coordinates": [ -83.5818029, 37.4766936 ] } },
{ "type": "Feature", "properties": { "Resource": "FARM", "Industry": null, "Name": "Little Rays Farm", "lon": -82.802797, "lat": 37.140687, "ADDRESS": "633 Copperhead Rd", "CITY": "Ermine", "STATE": "KY", "ZIP": 41815, "COUNTY": null, "source": 5, "field_12": null, "field_13": null, "field_14": null, "field_15": null, "field_16": null, "field_17": null, "field_18": null }, "geometry": { "type": "Point", "coordinates": [ -82.8027967, 37.1406866 ] } },
{ "type": "Feature", "properties": { "Resource": "FARM", "Industry": null, "Name": "Lone Oak Farm", "lon": -84.169564, "lat": 37.390870, "ADDRESS": "312 Threelinks Rd", "CITY": "Livingston", "STATE": "KY", "ZIP": 40445, "COUNTY": null, "source": 5, "field_12": null, "field_13": null, "field_14": null, "field_15": null, "field_16": null, "field_17": null, "field_18": null }, "geometry": { "type": "Point", "coordinates": [ -84.1695639, 37.39087 ] } },
{ "type": "Feature", "properties": { "Resource": "FARM", "Industry": null, "Name": "Lucas Farm", "lon": -82.849724, "lat": 37.095951, "ADDRESS": "25 Hampton Branch", "CITY": "Whitesburg", "STATE": "KY", "ZIP": 41858, "COUNTY": null, "source": 5, "field_12": null, "field_13": null, "field_14": null, "field_15": null, "field_16": null, "field_17": null, "field_18": null }, "geometry": { "type": "Point", "coordinates": [ -82.8497242, 37.0959508 ] } },
{ "type": "Feature", "properties": { "Resource": "FARM", "Industry": null, "Name": "Lunsford Farm", "lon": -83.721239, "lat": 37.115100, "ADDRESS": "10993 N Hwy 421", "CITY": "Manchester", "STATE": "KY", "ZIP": 40962, "COUNTY": null, "source": 5, "field_12": null, "field_13": null, "field_14": null, "field_15": null, "field_16": null, "field_17": null, "field_18": null }, "geometry": { "type": "Point", "coordinates": [ -83.7212389, 37.1151002 ] } },
{ "type": "Feature", "properties": { "Resource": "FARM", "Industry": null, "Name": "Lykins Produce and Eggs", "lon": -83.276643, "lat": 37.789736, "ADDRESS": "9661 Highway 191", "CITY": "Cannel City", "STATE": "KY", "ZIP": 41408, "COUNTY": null, "source": 5, "field_12": null, "field_13": null, "field_14": null, "field_15": null, "field_16": null, "field_17": null, "field_18": null }, "geometry": { "type": "Point", "coordinates": [ -83.2766434, 37.7897365 ] } },
{ "type": "Feature", "properties": { "Resource": "FARM", "Industry": null, "Name": "Lynch And Jumbuck Farms", "lon": -84.171014, "lat": 36.849748, "ADDRESS": "3634 Hwy 511", "CITY": "Corbin (Whitley)", "STATE": "KY", "ZIP": 40701, "COUNTY": null, "source": 5, "field_12": null, "field_13": null, "field_14": null, "field_15": null, "field_16": null, "field_17": null, "field_18": null }, "geometry": { "type": "Point", "coordinates": [ -84.171014, 36.849748 ] } },
{ "type": "Feature", "properties": { "Resource": "FARM", "Industry": null, "Name": "M&L Farm", "lon": -83.084068, "lat": 37.128682, "ADDRESS": "12287 Hwy 7", "CITY": "Cornettsville", "STATE": "KY", "ZIP": 41731, "COUNTY": null, "source": 5, "field_12": null, "field_13": null, "field_14": null, "field_15": null, "field_16": null, "field_17": null, "field_18": null }, "geometry": { "type": "Point", "coordinates": [ -83.0840682, 37.1286818 ] } },
{ "type": "Feature", "properties": { "Resource": "FARM", "Industry": null, "Name": "Manuel Mosley", "lon": -83.568199, "lat": 37.116110, "ADDRESS": "7982 South Highway 66", "CITY": "Big Creek", "STATE": "KY", "ZIP": 40914, "COUNTY": null, "source": 5, "field_12": null, "field_13": null, "field_14": null, "field_15": null, "field_16": null, "field_17": null, "field_18": null }, "geometry": { "type": "Point", "coordinates": [ -83.5681989, 37.11611 ] } },
{ "type": "Feature", "properties": { "Resource": "FARM", "Industry": null, "Name": "Mary Carpenter", "lon": -83.974686, "lat": 37.339847, "ADDRESS": "159 Bailey Rd", "CITY": "Annville", "STATE": "KY", "ZIP": 40402, "COUNTY": null, "source": 5, "field_12": null, "field_13": null, "field_14": null, "field_15": null, "field_16": null, "field_17": null, "field_18": null }, "geometry": { "type": "Point", "coordinates": [ -83.9746864, 37.3398468 ] } },