Store_Name,Longitude,Latitude,Address,Address Line #2,City,State,Zip5,County,category,source
ALDI 002,-84.104919,36.993332,24 S Highway 1223,,Corbin,KY,40701,WHITLEY ,Chain,1
ALDI 044,-84.626976,37.03677,4105 S Highway 27,,Somerset,KY,42501,PULASKI ,Chain,1
FOOD CITY  428,-83.70166,36.608299,102 N 12th St,,Middlesboro,KY,40965,BELL ,Chain,1
FOOD CITY 0458,-82.535591,37.504242,215 Cassidy Blvd,,Pikeville,KY,41501,PIKE ,Chain,1
FOOD CITY 424,-82.815857,37.816265,330 N Mayo Trl,,Paintsville,KY,41240,JOHNSON ,Chain,1
FOOD CITY 425,-82.269737,37.654957,28093 US Highway 119,Thompson Plaza,S Williamson,KY,41503,PIKE ,Chain,1
FOOD CITY 433,-82.630768,38.077732,70 Business US 23 N,,Louisa,KY,41230,LAWRENCE ,Chain,1
FOOD CITY 436,-82.841904,37.122917,251 Medical Plaza Ln,,Whitesburg,KY,41858,LETCHER ,Chain,1
FOOD CITY 437,-83.296417,36.83902,"2478 WOODLAND PLAZA, HWY 421",,HARLAN,KY,40831,HARLAN ,Chain,1
FOOD CITY 438,-83.217499,37.280159,50 Morton Blvd,,Hazard,KY,41701,PERRY ,Chain,1
FOOD CITY 468,-82.983826,36.97562,1314 E Main St,,Cumberland,KY,40823,HARLAN ,Chain,1
FOOD CITY 471,-82.781441,37.684498,429 University Dr,,Prestonsburg,KY,41653,FLOYD ,Chain,1
Food City 475,-82.509521,37.439312,2138 S Mayo Trl,,Pikeville,KY,41501,PIKE ,Chain,1
HODGENVILLE SAVE A LOT,-85.733978,37.550163,102 Lincoln Dr,,Hodgenville,KY,42748,LARUE ,Chain,1
HOUCHENS SAVE A LOT 076,-84.066444,37.095451,825 S Laurel Rd,,London,KY,40744,LAUREL ,Chain,1
HOUCHENS SAVE A LOT 077,-83.873047,36.858334,786 S US Highway 25E,,Barbourville,KY,40906,KNOX ,Chain,1
HOUCHENS SAVE A LOT 078,-84.162506,36.722878,1645 S Highway 25 W,,Williamsburg,KY,40769,WHITLEY ,Chain,1
HOUCHENS SAVE A LOT 079,-84.111771,36.9258,1520 Cumberland Falls Hwy,,Corbin,KY,40701,WHITLEY ,Chain,1
HOUCHENS SAVE A LOT 080,-83.736763,37.06271,"Rt 2, Box 799A",,Manchester,KY,40962,CLAY ,Chain,1
HOUCHENS SAVE A LOT 082,-83.69162,37.12114,120 Garrard Sq,,Manchester,KY,40962,CLAY ,Chain,1
HOUCHENS SAVE A LOT 143,-84.350395,37.356682,910 W Main St,,Mount Vernon,KY,40456,ROCKCASTLE ,Chain,1
Houchens Save A Lot 170,-84.100365,36.617569,12075 S Highway 25 W,,Williamsburg,KY,40769,WHITLEY ,Chain,1
HOUCHENS SAVE A LOT 171,-83.710434,36.614071,415 Dansbury Ave,,Middlesboro,KY,40965,BELL ,Chain,1
HOUCHENS SAVE A LOT 172,-83.646156,36.724163,RR 7 Box 300,Hwy 119,Pineville,KY,40977,BELL ,Chain,1
HOUCHENS SAVE A LOT 173,-83.326256,36.836098,93 Industrial Park Rd,,Harlan,KY,40831,HARLAN ,Chain,1
HOUCHENS SAVE A LOT 174,-84.069733,36.957214,1100 E Cumberland Gap Pkwy,,Corbin,KY,40701,WHITLEY ,Chain,1
HOUCHENS SAVE A LOT 243,-82.600166,38.002716,RT 7 BOX 20110,,LOUISA,KY,41230,LAWRENCE ,Chain,1
Houchen's Save A Lot 413,-84.457985,36.763344,65 Krit Kind Rd,,Whitley City,KY,42653,MCCREARY ,Chain,1
Houchen's Save A Lot 414,-84.62709,37.02034,5194 S Highway 27,,Somerset,KY,42501,PULASKI ,Chain,1
Houchen's Save A Lot 415,-84.617363,37.078617,1114 N Highway 27,,Somerset,KY,42503,PULASKI ,Chain,1
Houchen's Save A Lot 417,-83.369621,37.15546,92 Highway 80,,Hyden,KY,41749,LESLIE ,Chain,1
Houchen's Save A Lot 418,-83.355957,37.498085,1471 Highway 15 N,,Jackson,KY,41339,BREATHITT ,Chain,1
Houchen's Save A Lot 419,-83.297836,37.919365,7644 Liberty Rd,,West Liberty,KY,41472,MORGAN ,Chain,1
HOUCHENS SAVE A LOT 420,-82.570145,37.521942,4195 N Mayo Trl,,Pikeville,KY,41501,PIKE ,Chain,1
HOUCHENS SAVE A LOT 421,-82.542686,37.484745,240 S Mayo Trl,PO Box 1406,Pikeville,KY,41501,PIKE ,Chain,1
HOUCHENS SAVE A LOT 422,-82.541946,37.8489,6127 Route 645,PO Box 148,Inez,KY,41224,MARTIN ,Chain,1
HOUCHENS SAVE A LOT 423,-82.935738,37.313461,430 Highway 899,,Hindman,KY,41822,KNOTT ,Chain,1
HOUCHENS SAVE A LOT 424,-83.198227,37.256088,163 Citizens Ln,,Hazard,KY,41701,PERRY ,Chain,1
HOUCHENS SAVE A LOT 425,-83.208885,37.288311,52 Grand Vue Plz,,Hazard,KY,41701,PERRY ,Chain,1
HOUCHENS SAVE A LOT 426,-83.216179,36.856091,HWY 38,,EVARTS,KY,40828,HARLAN ,Chain,1
JACKSON CO SAVE-A-LOT,-83.901474,37.361401,971 Main St S,,McKee,KY,40447,JACKSON ,Chain,1
JUSTICE QUALITY FOODS 001,-82.179237,37.579716,1056 STATE ROUTE,,MCCARR,KY,41544,PIKE ,Chain,1
JUSTICE QUALITY FOODS 002,-82.374947,37.34203,HWY 460,PO BOX 180,REGINA,KY,41559,PIKE ,Chain,1
JUSTICE QUALITY FOODS 003,-82.554512,37.28767,HWY 23,PO BOX 2400,ROBINSON CREEK,KY,41560,PIKE ,Chain,1
KROGER #L-00331 L331,-84.099808,37.14027,1805 N Main St,,London,KY,40741,LAUREL ,Chain,1
KROGER #L-00345 L345,-84.625,37.054665,2835 S HWY 27,,SOMERSET,KY,42501,PULASKI ,Chain,1
KROGER #L-00409 L409,-84.090607,37.109833,1730 Highway 192 W,,London,KY,40741,LAUREL ,Chain,1
KROGER #L-00719 L719,-84.102974,36.929901,1019 CUMBERLAND FALLS HWY,,CORBIN,KY,40701,WHITLEY ,Chain,1
KROGER #L-00760 L760,-84.076172,36.959953,109 COMMONWEALTH,,CORBIN,KY,40701,WHITLEY ,Chain,1
KROGER 355,-83.703087,36.612518,303 N 12th St,,Middlesboro,KY,40965,BELL ,Chain,1
Kroger 745,-84.484604,37.060421,50 Stonegate Ctr,,Somerset,KY,42501,PULASKI ,Chain,1
KROGER 757,-84.618126,37.092167,181 S Highway 27,,Somerset,KY,42501,PULASKI ,Chain,1
Kroger 916,-84.479721,36.772564,1187 N Highway 27,,Whitley City,KY,42653,MCCREARY ,Chain,1
Price Less Foods,-83.98304,37.718906,1008 Winchester Rd,,Irvine,KY,40336,ESTILL ,Chain,1
Save A Lot 41,-83.540985,37.725712,719 KY 15 S,,Campton,KY,41301,WOLFE ,Chain,1
Save A Lot 54,-82.590393,37.340786,669 KY Highway 610 W,,Virgie,KY,41572,PIKE ,Chain,1
Save A Lot 57,-82.1595,37.510136,13300 Phelps 632 Rd,,Phelps,KY,41553,PIKE ,Chain,1
SAVE A LOT OF BEATTYVILLE 20,-83.729019,37.543877,2093 Highway 11 S,,Beattyville,KY,41311,LEE ,Chain,1
SAVE A LOT OF IRVINE 19,-83.983192,37.696175,1290 Richmond Rd,,Irvine,KY,40336,ESTILL ,Chain,1
SAVE A LOT OF MARTIN 16,-82.772499,37.557137,80 Stephens Branch Rd,,Martin,KY,41649,FLOYD ,Chain,1
SAVE A LOT OF PAINTSVILLE 14,-82.815727,37.815681,229 N Mayo Trl,,Paintsville,KY,41240,JOHNSON ,Chain,1
SAVE A LOT OF PRESTONSBURG 15,-82.782089,37.655457,525 Village Dr,,Prestonsburg,KY,41653,FLOYD ,Chain,1
SAVE A LOT OF SALYERSVILLE 23,-83.036545,37.737358,735 E Mountain Pkwy,,Salyersville,KY,41465,MAGOFFIN ,Chain,1
SAVE A LOT OF SOUTH WILLIAMSON 17,-82.345558,37.688736,US Highway 119,,GOODY,KY,41514,PIKE ,Chain,1
SAVE A LOT OF WHITESBURG 21,-82.839127,37.12352,136 Parkway Plaza Loop,,Whitesburg,KY,41858,LETCHER ,Chain,1
Schwan's Home Service of Prestonsburg KY North 102710,-82.779221,37.691467,427 Cliff Rd,,Prestonsburg,KY,41653,FLOYD ,Chain,1
Schwan's Home Service-London KY E 100030,-84.187614,37.145344,321 Vaughn Ridge Rd,,London,KY,40741,LAUREL ,Chain,1
VELOCITY MARKET 002,-82.632805,37.545673,PO Box 218,,Betsy Layne,KY,41605,FLOYD ,Chain,1
VELOCITY MARKET 003,-82.468246,37.532288,4704 Zebulon Hwy,,Pikeville,KY,41501,PIKE ,Chain,1
VELOCITY MARKET 004,-82.364845,37.294701,1104 Elkhorn Crk,,Elkhorn City,KY,41522,PIKE ,Chain,1
VELOCITY MARKET 006,-82.524872,37.485394,533 Hambley Blvd,,Pikeville,KY,41501,PIKE ,Chain,1
CASEYS IGA,-82.980759,37.307262,130 HOLLY HILLS SHOPPING CTR,,HINDMAN,KY,41822,KNOTT ,IGA,2
CROSSROADS IGA 775,-84.575706,37.103088,1830 E Highway 80 # 80,,Somerset,KY,42501,PULASKI ,IGA,2
CROSSROADS IGA 777,-84.894409,37.129036,9630 W Highway 80,,Nancy,KY,42544,PULASKI ,IGA,2
FOOD WORLD IGA,-82.715881,37.178638,3149 Highway 805,,Neon,KY,41840,LETCHER ,IGA,2
HAPPY IGA,-83.090256,37.20472,10036 S KY Highway 15,PO Box 237,Happy,KY,41746,PERRY ,IGA,2
Houchen's Hometown IGA 53,-84.576218,37.102486,470 E Highway 80,,Somerset,KY,42501,PULASKI ,IGA,2
HOUCHENS IGA 056,-83.885254,36.8512,193 Parkway Plz,,Barbourville,KY,40906,KNOX ,IGA,2
HYDEN IGA,-83.393837,37.101112,211224 HWY 421,,HYDEN,KY,41749,LESLIE ,IGA,2
IGA 002,-83.758858,37.135361,1628 S Highway 421,,Manchester,KY,40962,CLAY ,IGA,2
"Inez Iga, Llc",-82.552635,37.909676,30 Rockcastle Rd,,Inez,KY,41224,MARTIN ,IGA,2
JACKSON IGA,-83.342476,37.484821,HWY 15,,JACKSON,KY,41339,BREATHITT ,IGA,2
JENKINS IGA,-82.636032,37.171108,11 Freedom Ln,,Jenkins,KY,41537,LETCHER ,IGA,2
MANCHESTER IGA,-83.765862,37.138081,414 Highway 421,Manchester Square Shopping Center,MANCHESTER,KY,40962,CLAY ,IGA,2
Martins Iga 1854,-82.760384,37.561901,12602 Main St,,Martin,KY,41649,FLOYD ,IGA,2
MAY'S GROCERY,-82.56942,37.459557,560 Right Fork of Island Crk,,Pikeville,KY,41501,PIKE ,IGA,2
MC KEE IGA,-84.035591,37.403084,HWY 421 S,,MC KEE,KY,40447,JACKSON ,IGA,2
MCDOWELL IGA,-82.748756,37.457569,9623 KY Route 122,,McDowell,KY,41647,FLOYD ,IGA,2
"Salyersville Iga, LLC 0798",-83.049728,37.740971,443 Parkway Dr,,Salyersville,KY,41465,MAGOFFIN ,IGA,2
"Warfield Iga, Llc",-82.440636,37.835346,9134 Beauty Rd,,Warfield,KY,41267,MARTIN ,IGA,2
WEST LIBERTY IGA,-83.255127,37.85405,64 Highway 191,,West Liberty,KY,41472,MORGAN ,IGA,2
Williamsburg IGA 57,-84.155869,36.743713,25 N Highway 25 W,,Williamsburg,KY,40769,WHITLEY ,IGA,2
1247 Pantry,-84.614525,37.107136,1114 N Highway 1247,,Somerset,KY,42503,PULASKI ,Independent,3
A & D Market,-83.922745,37.397781,6700 Hwy 421S,,Gray Hawk,KY,40434,JACKSON ,Independent,3
A & R Grocery Inc,-84.597862,37.094704,508 E Mount Vernon St,,Somerset,KY,42501,PULASKI ,Independent,3
A&M Grocery,-84.39975,36.673462,1059 E Highway 92,,Pine Knot,KY,42635,MCCREARY ,Independent,3
Adams Grocery Store,-84.361938,37.144585,25 Sandy Gap Rd,,Somerset,KY,42501,PULASKI ,Independent,3
Adams Market 01,-83.259361,37.122982,4637 Cutshin Rd,,Smilax,KY,41764,LESLIE ,Independent,3
ADAS MOUNTAIN MARKET,-83.948921,37.629436,9650 McKee Rd,,Irvine,KY,40336,ESTILL ,Independent,3
AMISH & MORE,-84.623665,37.103985,65 N HWY  2227,Ste 1,Somerset,KY,42503,PULASKI ,Independent,3
ANDERSON GROCERY,-84.388962,36.67561,6220 S Highway 1651,,Pine Knot,KY,42635,MCCREARY ,Independent,3
ANNVILLE TOWN & COUNTRY MARKET,-84.035751,37.264275,HWY 30 W,,ANNVILLE,KY,40402,JACKSON ,Independent,3
Apeyard Market LLC no,-84.112526,37.205124,2276 Highway 490,,East Bernstadt,KY,40729,LAUREL ,Independent,3
Appalachian Meats,-82.86322,37.650444,169 W Old Middle Creek Rd,,Prestonsburg,KY,41653,FLOYD ,Independent,3
Arnold's Grocery,-84.286583,36.988033,700 London Dock Rd,,London,KY,40744,LAUREL ,Independent,3
B & A Market,-84.289871,36.78981,4075 Craig Rd,,Williamsburg,KY,40769,WHITLEY ,Independent,3
B & L GROCERY,-84.44017,37.350842,4398 Willailla Rd,,Brodhead,KY,40409,ROCKCASTLE ,Independent,3
Bakers Country Store,-83.523727,36.874146,221 Hwy,,Stoney Fork,KY,40988,BELL ,Independent,3
Baker's Miners Market,-83.259361,37.122982,3115 Cutshin Rd,,Smilax,KY,41764,LESLIE ,Independent,3
Barbs Fruit Market,-84.091202,37.134254,1102 N Main St,,London,KY,40741,LAUREL ,Independent,3
BARKER'S CASH & CARRY,-82.683975,37.201004,2192 Highway 343,,MC Roberts,KY,41835,LETCHER ,Independent,3
Bear Ridge Market,-83.203903,36.865219,14 Sals Branch Rd,,Evarts,KY,40828,HARLAN ,Independent,3
"Bear Track Grocery, LLC",-83.746155,37.62859,6752 Highway 52 W,,Beattyville,KY,41311,LEE ,Independent,3
Beaver Food Market,-82.783257,37.375835,53 Old House Branch Rd,,Topmost,KY,41862,KNOTT ,Independent,3
Bee Creek Market Llc,-84.255913,36.913948,2635 Bee Creek Rd,,Corbin,KY,40701,WHITLEY ,Independent,3
BEFORE TOWN MINI MART & DELI,-84.442146,36.659019,2682 E Highway 92,,Pine Knot,KY,42635,MCCREARY ,Independent,3
BELCHER'S GROCERY,-84.650055,37.296131,19575 KY Highway 1247,,Eubank,KY,42567,PULASKI ,Independent,3
Bell Country Store,-84.200104,36.880329,8103 Cumberland Falls Hwy,,Corbin,KY,40701,WHITLEY ,Independent,3
Benges Grocery,-83.981461,37.035374,7935 Barbourville Rd,,London,KY,40744,LAUREL ,Independent,3
Benton Produce,-83.255127,37.85405,2819 Highway 191,,West Liberty,KY,41472,MORGAN ,Independent,3
BERTHA NOBLES GROCERY,-83.567291,37.568401,11495 Highway 52 E,,Jackson,KY,41339,BREATHITT ,Independent,3
BETTY'S GROCERY,-82.779381,37.184544,4596 Thornton Rd,,Thornton,KY,41855,LETCHER ,Independent,3
BETTY'S GROCERY,-83.027367,37.965668,17641 Highway 172,,West Liberty,KY,41472,MORGAN ,Independent,3
BIG Y MARKET,-82.944305,37.265362,7353 Highway 160 S,,Littcarr,KY,41834,KNOTT ,Independent,3
BINGHAMTOWN FAMILY MART,-83.71727,36.634174,PO Box 10,,Middlesboro,KY,40965,BELL ,Independent,3
Black Mountain Exchange,-82.913452,36.964626,16 E Main St,,Lynch,KY,40855,HARLAN ,Independent,3
Bob & Betty Grocery,-82.899742,37.006729,469 Highway 3073,,Partridge,KY,40862,LETCHER ,Independent,3
Booneville Shopwise,-83.612244,37.485645,279 Hwy 28 E,,Booneville,KY,41314,OWSLEY ,Independent,3
Bowling's Town Market,-83.632591,37.242435,14797 N Highway 66,,Oneida,KY,40972,CLAY ,Independent,3
"Bowling's Town Market 2, Llc",-83.790321,37.234112,6512 N Highway 421,,Manchester,KY,40962,CLAY ,Independent,3
BROCK'S MARKET,-83.389969,36.95039,1571 Highway 421,,Bledsoe,KY,40810,HARLAN ,Independent,3
Brothers Market,-83.811165,36.932354,5400 N Highway 11,,Cannon,KY,40953,KNOX ,Independent,3
Brown Farm Meats,-83.981262,37.695599,389 Richmond Rd,,Irvine,KY,40336,ESTILL ,Independent,3
Buck Mart Holdings Llc,-82.837425,37.825356,643 KY Route 40 W,,Staffordsville,KY,41256,JOHNSON ,Independent,3
Buddies' Produce,-83.04055,37.738579,500 East Mt. Parkway,,Salyersville,KY,41465,MAGOFFIN ,Independent,3
Buddys Produce,-82.48159,37.438515,1372 W Shelbiana Rd,,Pikeville,KY,41501,PIKE ,Independent,3
BULAN MEATS AND GROCERY,-83.166946,37.299156,5633 KY Highway 476,,Bulan,KY,41722,PERRY ,Independent,3
Bulk Foods & More,-85.76889,37.630672,1401 Walter Reed Rd,,Hodgenville,KY,42748,LARUE ,Independent,3
C & M Market,-83.813049,36.787827,71 Flagstone Avenue,,Trosper,KY,40995,KNOX ,Independent,3
C & S Grocery,-83.990562,36.927704,1557 South Ky Hwy 233,,Gray,KY,40734,KNOX ,Independent,3
"C & S GROCERY, INC.",-83.22834,36.782478,160 Highway 1137,,Cawood,KY,40815,HARLAN ,Independent,3
Cameron's,-83.733986,36.949295,9667 Highway 223,,Flat Lick,KY,40935,KNOX ,Independent,3
CANEY VALLEY GROCERY,-83.253319,37.912628,6555 Highway 1000,,West Liberty,KY,41472,MORGAN ,Independent,3
Canyon Falls Grocery,-83.565208,37.590229,2777 Hwy 708 East,,Beattyville,KY,41311,LEE ,Independent,3
CARLOS MILLS GROCERY,-83.737762,36.877151,13516 HWY 223,,SCALF,KY,40982,KNOX ,Independent,3
CASTLE FAMILY FOOD,-82.682961,37.813667,RT 40E,,BOONESCAMP,KY,41204,JOHNSON ,Independent,3
CHANEY'S GROCERY,-83.453033,37.420288,10438 Highway 1110,,Jackson,KY,41339,BREATHITT ,Independent,3
CHENOA COUNTRY STORE,-83.926933,36.642521,13839 HWY 190 W,,PINEVILLE,KY,40977,BELL ,Independent,3
Cindy Lou Whos 2,-82.695145,37.57019,2691 KY Route 1426,,Banner,KY,41603,FLOYD ,Independent,3
CLAYHOLE GROCERY,-83.240723,37.450432,3757 Highway 476,,Clayhole,KY,41317,BREATHITT ,Independent,3
Cleav's Meat Shack,-85.739395,37.567802,405 S Lincoln Blvd,,Hodgenville,KY,42748,LARUE ,Independent,3
"Clifford Country Store, LLC",-82.526566,38.024517,9958 S Highway 3,,Louisa,KY,41230,LAWRENCE ,Independent,3
COLLISTA GROCERY,-82.82618,37.783566,1400 RT 825,,HAGER HILL,KY,41222,JOHNSON ,Independent,3
COLSON'S MARKET INC.,-83.761406,37.136116,HWY 1190 NORTH 421,,MANCHESTER,KY,40962,CLAY ,Independent,3
Corner Market,-84.450867,37.153244,8735 E Highway 80,,Somerset,KY,42501,PULASKI ,Independent,3
Corner Market,-84.059341,36.980289,4763 Highway 830,,Corbin,KY,40701,WHITLEY ,Independent,3
Courtney's Grocery,-83.915123,37.083504,6441 E Laurel Rd,,London,KY,40741,LAUREL ,Independent,3
Cumberland Market 2,-83.712906,36.607334,1731 Cumberland Ave,,Middlesboro,KY,40965,BELL ,Independent,3
D & D GROCERY,-83.737762,36.877151,15317 Hwy 223,,Scalf,KY,40982,KNOX ,Independent,3
D & F Farm Mart,-84.570015,37.050381,755 Elihu Rush Branch Rd,,Somerset,KY,42501,PULASKI ,Independent,3
D J 'S GROCERY,-83.787254,37.059113,1262 Ells Branch Rd,,Manchester,KY,40962,CLAY ,Independent,3
"DALE NOBLE GROCERY, INC.",-83.321136,37.355942,3108 KY Highway 28,,Hazard,KY,41701,PERRY ,Independent,3
DARRELL'S GROCERY,-82.189072,37.474667,447 Smith Fork Rd,,Phelps,KY,41553,PIKE ,Independent,3
DAVIS GROCERY,-84.578743,36.952496,10835 S Highway 27,,Burnside,KY,42519,PULASKI ,Independent,3
DAVIS PRODUCE,-82.788712,37.768143,7330 S KY Route 321,,Hagerhill,KY,41222,JOHNSON ,Independent,3
DEWAYNE SAYLOR'S GROCERY,-83.014648,36.883801,21414 Highway 38,,Closplint,KY,40927,HARLAN ,Independent,3
DIXON'S MARKET,-84.052223,36.943581,830 Moore Hill Ave,,Corbin,KY,40701,WHITLEY ,Independent,3
D'S GROCERY,-82.646271,37.42194,11496 KY Route 979,,Teaberry,KY,41660,FLOYD ,Independent,3
E C PORTER SUPERMARKETKT,-84.074471,37.131023,714 E 4th St,,London,KY,40741,LAUREL ,Independent,3
East KY Meats,-82.36145,37.515339,28 Merrit Williams Rd,,Kimper,KY,41539,PIKE ,Independent,3
East Laurel Furniture & Produce LLC,-83.90332,37.085503,9241 E Laurel Rd,,London,KY,40741,LAUREL ,Independent,3
Ellison Country Market,-84.212486,37.031467,8414 W Laurel Rd,,London,KY,40741,LAUREL ,Independent,3
Ernie's T&m Market,-84.33593,37.364326,840 Richmond St,,Mount Vernon,KY,40456,ROCKCASTLE ,Independent,3
FAMILY FOODS,-82.135353,37.553581,HWY 194 51 SPUR,,FREEBURN,KY,41528,PIKE ,Independent,3
Family Grocery,-82.589035,37.87672,3756 Tomahawk Rd,,Tomahawk,KY,41262,MARTIN ,Independent,3
"Fannin's Grocery, Llc",-82.765312,37.824894,5963 Main St,,Thelma,KY,41260,JOHNSON ,Independent,3
Fannin's Vegetables,-83.290146,37.886147,2140 Highway 460 W,,West Liberty,KY,41472,MORGAN ,Independent,3
FOOD & STUFF,-83.104958,37.753025,RT 378 MT ZION RD,,SALYERSVILLE,KY,41465,MAGOFFIN ,Independent,3
FOOD FAIR DOWNTOWN,-84.602348,37.092617,305 E Mount Vernon St,,Somerset,KY,42501,PULASKI ,Independent,3
Front Porch Store 2,-83.126556,37.047359,35 Ky Highway 463,,Slemp,KY,41763,PERRY ,Independent,3
GARDEN SPOT PRODUCE,-84.101463,36.974384,491 CUMBERLAND GAP PKWY,PO BOX 844,CORBIN,KY,40702,WHITLEY ,Independent,3
GILLIAM'S GROCERY,-83.026657,37.965424,13042 Highway 172,,West Liberty,KY,41472,MORGAN ,Independent,3
Glenview Market,-84.121712,37.1688,2151 N Laurel Rd,,London,KY,40741,LAUREL ,Independent,3
GOLDEN APPLE FRUIT MKT #2,-82.793457,37.151497,1523 HWY 119N,,ERMINE,KY,41815,LETCHER ,Independent,3
Golden Apple Hindman Ky 3,-82.961906,37.321579,2060 Highway 160 S,,Hindman,KY,41822,KNOTT ,Independent,3
Greenwood Retail LLC,-84.620834,37.064411,2070 S Highway 27,,Somerset,KY,42501,PULASKI ,Independent,3
H & S Discount Foods Llc,-82.993332,36.974808,413 W Main St,,Cumberland,KY,40823,HARLAN ,Independent,3
"HALL'S COMMUNITY MARKET, #2",-82.716949,37.355049,21452 KY Route 122,,Bypro,KY,41612,FLOYD ,Independent,3
HARRIS GROCERY,-84.853119,36.9641,11932 Highway 196,,Nancy,KY,42544,PULASKI ,Independent,3
Heavenly Manchester Llc,-83.748787,37.125259,2727 S Highway 421,Ste 3,Manchester,KY,40962,CLAY ,Independent,3
Hensley's Grocery,-83.410576,36.815029,1498 Highway 219,,Wallins Creek,KY,40873,HARLAN ,Independent,3
HIGHWAY PRODUCE MARKET,-83.766541,37.161572,406 Richmond Rd,,Manchester,KY,40962,CLAY ,Independent,3
"Hillside Market, Llc",-83.933411,36.617935,17102 Hwy 190,,Frakes,KY,40940,BELL ,Independent,3
Hillside Pantry,-84.656372,37.216915,2020 Etna Rd,,Eubank,KY,42567,PULASKI ,Independent,3
Hilltop Produce,-84.216629,37.294693,1174 S Wilderness Rd,,Mount Vernon,KY,40456,ROCKCASTLE ,Independent,3
Houses Market,-83.972275,37.302444,7358 Highway 3630,,Annville,KY,40402,JACKSON ,Independent,3
Houses Midway Market,-84.079895,36.972057,6343 S US Highway 25,,Corbin,KY,40701,WHITLEY ,Independent,3
HYDEN GROCERY,-83.382027,37.159294,HWY 421 MAIN ST,,HYDEN,KY,41749,LESLIE ,Independent,3
IAN'S MARKET,-84.618263,37.074799,1345 S Highway 27,,Somerset,KY,42501,PULASKI ,Independent,3
INEZ SUPERMARKET,-82.541573,37.867973,KY HWY 40 & KY HWY 3,,INEZ,KY,41224,MARTIN ,Independent,3
ISLAND CREEK GROCERY,-82.553902,37.43288,1646 Left Fork of Island Crk,,Pikeville,KY,41501,PIKE ,Independent,3
J & G MARKET,-84.013237,36.94516,10135 N US Highway 25E,,Gray,KY,40734,KNOX ,Independent,3
J & J Food Mart Inc,-84.168571,37.053249,5820 W Laurel Rd,,London,KY,40741,LAUREL ,Independent,3
J & J GENERAL STORE,-83.045174,37.725372,19376 SE Licking River Rd,,Salyersville,KY,41465,MAGOFFIN ,Independent,3
JACKS SUPERMARKET,-83.702171,37.571999,285 East Main Street,,BEATTYVILLE,KY,41311,LEE ,Independent,3
Jackson's Grocery Llc,-83.925491,37.228168,7266 State Hwy 472,,Manchester,KY,40962,CLAY ,Independent,3
JERRY WHITE'S MARKET INC,-83.182281,36.8615,107 S Main St,,Evarts,KY,40828,HARLAN ,Independent,3
Jims Country Store,-83.461823,36.756126,5239 E Highway 72,,Pathfork,KY,40863,HARLAN ,Independent,3
Johnson's Custom Meats,-83.50679,37.484673,86 Johnson Branch Rd,,Booneville,KY,41314,OWSLEY ,Independent,3
Johnson's Fresh Fruits And Vegetables,-83.506721,37.484646,84 Johnson Branch Rd,,Booneville,KY,41314,OWSLEY ,Independent,3
JOHNSON'S STORE,-82.393265,37.378716,1366 MARROWBONE RD,,REGINA,KY,41559,PIKE ,Independent,3
JONES MARKET,-84.089386,36.61911,2330 Highway 1804,,Williamsburg,KY,40769,WHITLEY ,Independent,3
KC GROCERY & VIDEO,-82.768021,37.287182,9071 Highway 7 S,,Kite,KY,41828,KNOTT ,Independent,3
Keavy Market,-84.145302,37.003944,25 E Highway 312,,Keavy,KY,40737,LAUREL ,Independent,3
Kentucky Cattle Company,-84.602348,37.068089,524 Murphy Ave,,Ferguson,KY,42533,PULASKI ,Independent,3
Kimber's Country Market,-82.842697,38.027912,17727 Highway 32,,Blaine,KY,41124,LAWRENCE ,Independent,3
Kings Salvage Foods,-84.487617,37.156445,6341 Grundy Rd,,Somerset,KY,42501,PULASKI ,Independent,3
Kingscreek Market Llc,-82.921188,37.079266,12224 Highway 160,,Whitesburg,KY,41858,LETCHER ,Independent,3
KOOPS GENERAL STORE,-83.685143,37.692505,8731 Highway 11 N,,Zoe,KY,41397,LEE ,Independent,3
KOUNTRY KORNER MARKET,-82.852394,37.895901,5659 KY Route 201,,Sitka,KY,41255,JOHNSON ,Independent,3
L & S Grocery & Restaurant,-84.598595,36.725101,15058 W Highway 92,,Stearns,KY,42647,MCCREARY ,Independent,3
L&s Farmer's Market,-83.211365,37.280888,755 Combs Rd,,Hazard,KY,41701,PERRY ,Independent,3
La Villa,-84.622002,37.098629,345 N Highway 27,Ste 7,Somerset,KY,42503,PULASKI ,Independent,3
LAKESIDE MARKET,-84.208176,36.954441,675 Flatwoods Rd,,Corbin,KY,40701,WHITLEY ,Independent,3
Lewis Grocery,-83.218475,37.069561,11555 Cutshin Rd,,Yeaddiss,KY,41777,LESLIE ,Independent,3
Lewiss,-83.622055,36.854607,5205 Highway 66,,Arjay,KY,40902,BELL ,Independent,3
LILLIE CAMPBELL & SON,-82.833229,37.479763,313 Front St,,Garrett,KY,41630,FLOYD ,Independent,3
LILY SHOP N CART,-84.090935,37.01989,4020 E Highway 552,,Lily,KY,40740,LAUREL ,Independent,3
Little Country Market,-82.516258,37.831242,4098 Rockcastle Rd,,Inez,KY,41224,MARTIN ,Independent,3
LONG'S PIC PAC,-83.749344,36.727951,134 S Pine St,,Pineville,KY,40977,BELL ,Independent,3
LYONS GROCERY CSL,-83.091324,37.819683,1885 Coon Creek Rd,,Salyersville,KY,41465,MAGOFFIN ,Independent,3
M &  S Grocery,-83.560104,37.117641,6974 S Highway 66,,Big Creek,KY,40914,CLAY ,Independent,3
MACK'S SUPERMARKET,-83.323395,36.842518,416 S Main St,,Harlan,KY,40831,HARLAN ,Independent,3
MAGGARD'S STORE,-82.845711,37.184635,2199 Highway 1148,,Isom,KY,41824,LETCHER ,Independent,3
MAMAW'S GROCERY,-83.051102,37.788933,4767 Lick Creek Rd,,Salyersville,KY,41465,MAGOFFIN ,Independent,3
Marcums Grocery,-83.767151,37.34087,5312 Highway 1350,,Sextons Creek,KY,40983,CLAY ,Independent,3
MCINTYRES GROCERY,-83.089211,37.154945,23 Dykes Branch Rd,,Viper,KY,41774,PERRY ,Independent,3
Messer Market,-83.70929,36.765945,830 TENNESSEE AVE,,PINEVILLE,KY,40977,BELL ,Independent,3
MEV'S GROCERY,-83.666138,36.790436,HWY 66,,ARJAY,KY,40902,BELL ,Independent,3
Mike's Market,-84.142509,36.979053,3976 Level Green Rd,,Corbin,KY,40701,WHITLEY ,Independent,3
Mimis General Store Discount Grocery,-84.449478,37.343094,1404 Willailla Rd,,Brodhead,KY,40409,ROCKCASTLE ,Independent,3
MRS SMITH'S BAKE SHOPPE,-84.076889,37.130665,435 E 4th St,,London,KY,40741,LAUREL ,Independent,3
Mt. Vernon IGA,-84.345688,37.352238,305 US Highway 150,,Mount Vernon,KY,40456,ROCKCASTLE ,Independent,3
N & S Farm,-82.917625,37.171535,177 Blair Br,,Jeremiah,KY,41826,LETCHER ,Independent,3
Neighborhood Market,-85.729439,37.565914,374 S Greensburg St,,Hodgenville,KY,42748,LARUE ,Independent,3
Nelson Valley Grocery,-84.573273,37.151741,2601 Highway 39,,Somerset,KY,42503,PULASKI ,Independent,3
New Ott Farm Goods,-83.394844,37.593697,200 Newton Br,,Jackson,KY,41339,BREATHITT ,Independent,3
OAKLEY COUNTRY STORE,-83.047104,37.679195,497 S River Rd,,Salyersville,KY,41465,MAGOFFIN ,Independent,3
Oil Springs Country Market,-82.94574,37.809067,8085 KY Route 40 W,,Oil Springs,KY,41238,JOHNSON ,Independent,3
Old Arvin Homestead FMC,-83.977829,37.646824,3225 McKee Rd,,Irvine,KY,40336,ESTILL ,Independent,3
Ott's General Store,-84.194847,37.155384,21 Hawk Creek Rd,,London,KY,40741,LAUREL ,Independent,3
Owlhead's Grocery,-83.979355,37.680649,1510 S Irvine Rd,,Irvine,KY,40336,ESTILL ,Independent,3
"PANTRY SHELF, INC",-83.193718,37.250946,426 Memorial Dr,,Hazard,KY,41701,PERRY ,Independent,3
Paps Market LLC,-83.393829,37.152077,23498 Highway 421,,Hyden,KY,41749,LESLIE ,Independent,3
Paps Produce,-82.793442,37.682625,145 Abbott Creek Rd,,Prestonsburg,KY,41653,FLOYD ,Independent,3
PIC PAC GROCERY & DELI,-82.904617,37.18969,JCT HWY 15 & HWY 7,,ISOM,KY,41824,LETCHER ,Independent,3
Pine Top Market,-84.143478,37.149307,175 Pine Top Rd,,London,KY,40741,LAUREL ,Independent,3
POND CREEK GROCERY,-82.268005,37.570663,2356 Pond Creek Rd,,McAndrews,KY,41543,PIKE ,Independent,3
POOR BOY'S PRODUCE MARKET,-83.042542,37.720131,277 Parkway Dr,,Salyersville,KY,41465,MAGOFFIN ,Independent,3
Price Rite Inc,-82.742302,37.394722,16509 KY Route 122,,HI Hat,KY,41636,FLOYD ,Independent,3
R.C.'s Country Store,-82.168037,37.620781,11366 State Highway 1056,,McCarr,KY,41544,PIKE ,Independent,3
RALPH'S MARKET,-82.991165,38.00444,22635 Highway 32,,Martha,KY,41159,LAWRENCE ,Independent,3
Reese's,-83.647659,37.579887,4226 Highway 52 E,,Beattyville,KY,41311,LEE ,Independent,3
REYNOLDS PRODUCE MKT INC,-82.519394,37.474419,673 SOUTH BY PASS,,PIKEVILLE,KY,41501,PIKE ,Independent,3
Riverside Produce,-84.161194,36.726456,1378 HWY 25 W,,WILLIAMSBURG,KY,40769,WHITLEY ,Independent,3
Roark Meats,-83.962479,36.948078,6070 North Highway 25 East,,Gray,KY,40734,KNOX ,Independent,3
Roberts & Roberts,-83.51342,37.44101,250 Charlie Roberts Branch Rd,,Bonneville,KY,41314,OWSLEY ,Independent,3
ROBERTS MARKET,-83.490509,37.017311,2645 HWY 406,,ESSIE,KY,40827,LESLIE ,Independent,3
ROBINSON GROCERY,-83.863983,37.226471,14354 N Highway 421,,Manchester,KY,40962,CLAY ,Independent,3
ROBINSON'S MARKET,-84.096519,37.246479,5578 Highway 490,,East Bernstadt,KY,40729,LAUREL ,Independent,3
Robinson's Premium Meats,-84.11116,37.159412,701 Robinson Rd,,London,KY,40741,LAUREL ,Independent,3
Rollin Hills Farm,-83.746208,37.49435,541 Brewer Rd,,Booneville,KY,41314,OWSLEY ,Independent,3
Ron's Country Market,-84.003181,37.037426,6740 Barbourville Rd,,London,KY,40744,LAUREL ,Independent,3
RON'S FOOD MARKET,-84.368378,36.827423,7080 STATE ROUTE 90,,PARKERS LAKE,KY,42634,MCCREARY ,Independent,3
ROPER'S MARKET,-83.304802,36.876541,144 W Highway 72,,Baxter,KY,40806,HARLAN ,Independent,3
S & M GROCERY,-83.84111,36.938049,6131 N KENTUCKY 11,,GIRDLER,KY,40943,KNOX ,Independent,3
S C TURNER GROCERY,-83.390106,37.375294,15270 Highway 1110,,Altro,KY,41339,BREATHITT ,Independent,3
Sano Meat,-84.893967,37.128895,9241 W Highway 80,,Nancy,KY,42544,PULASKI ,Independent,3
SAVE U MORE,-84.0998,37.140434,1812 N Main St,,London,KY,40741,LAUREL ,Independent,3
Shirley Henson Grocery 1,-83.309319,37.44199,17 Rambo Dr,,Lost Creek,KY,41348,BREATHITT ,Independent,3
SIBERT MARKET,-83.754135,37.128563,2179 Highway 80,,Manchester,KY,40962,CLAY ,Independent,3
Star Grocers Inc.,-83.98822,37.697525,905 Richmond Rd,,Irvine,KY,40336,ESTILL ,Independent,3
T & J FAMILY FOODS,-82.351067,37.489632,10385 State Highway 194 E,,Kimper,KY,41539,PIKE ,Independent,3
T & K PRODUCE,-82.79744,37.51955,Route 777,,LANGLEY,KY,41645,FLOYD ,Independent,3
TACKETTS MARKET,-82.649483,37.309174,OLD HY 23 BOX 272,,VIRGIE,KY,41572,PIKE ,Independent,3
Teddy Creech,-83.583702,37.675358,651 Sandy Rdg,,Campton,KY,41301,WOLFE ,Independent,3
TESH'S ROSSPOINT MKT,-83.291916,36.882282,113 Highway 522,,Baxter,KY,40806,HARLAN ,Independent,3
THE COMMISSARY,-83.323883,36.845943,121 S Cumberland Ave,,Harlan,KY,40831,HARLAN ,Independent,3
THE COUNTRY STORE #1,-84.489418,36.692402,1060 S Highway 1651,,Stearns,KY,42647,MCCREARY ,Independent,3
The Market On Main,-84.604156,37.092171,50 Public Sq,,Somerset,KY,42501,PULASKI ,Independent,3
The Market On Main,-84.62645,37.042278,3661 South Highway 27,,Somerset,KY,42501,PULASKI ,Independent,3
THOMAS CALLAHAN GROCERY,-83.612244,37.485645,HWY 1350 GENERAL DELIVERY,,ISLAND CITY,KY,41314,OWSLEY ,Independent,3
Tienda El Quetzal 2 2,-84.614998,37.09663,509 Ogden St,,Somerset,KY,42501,PULASKI ,Independent,3
Trent Grocery,-82.838676,37.090363,6682 Highway 931 S,,Whitesburg,KY,41858,LETCHER ,Independent,3
Triangle Foods,-82.760513,37.560837,98 Triangle St,,Martin,KY,41649,FLOYD ,Independent,3
Triple D Country Meats,-84.626923,37.243092,10493 N Highway 1247,,Eubank,KY,42567,PULASKI ,Independent,3
Triple D Farms,-83.91346,37.294704,2118 Smith Rd,,Annville,KY,40402,JACKSON ,Independent,3
"Triple R General Store, Inc.",-83.489922,37.183941,33131 Highway 421,,Bear Branch,KY,41714,LESLIE ,Independent,3
"Triple R Route 66 Market, Inc.",-83.69162,37.12114,15850 S Highway 421,,Manchester,KY,40962,CLAY ,Independent,3
Triple T Grocery,-83.743736,36.919971,12122 Ky 223,,Flat Lick,KY,40935,KNOX ,Independent,3
TURNERS GROCERY,-83.21685,36.980186,12745 E Highway 221,,Big Laurel,KY,40808,HARLAN ,Independent,3
UNITED GROCERY OUTLET 24,-83.230164,37.280994,410 Village Ln,,Hazard,KY,41701,PERRY ,Independent,3
Vernon Collett Jr Grocery Inc,-83.490509,37.017311,10071 HWY 406,,ROARK,KY,40979,LESLIE ,Independent,3
Village Market,-84.063591,37.10725,326 Barbourville Rd,,London,KY,40744,LAUREL ,Independent,3
W & R Grocery Llc,-83.816833,37.12907,8340 S Highway 421,,Manchester,KY,40962,CLAY ,Independent,3
Webb's Grocery,-82.717293,37.759411,1917 Millers Crk,,Van Lear,KY,41265,JOHNSON ,Independent,3
Wheeldon's Grocery LLC,-84.507309,37.284451,11680 Highway 39,,Somerset,KY,42503,PULASKI ,Independent,3
"Wildcat Mountain Cheese, Llc",-84.097809,37.238144,4929 Highway 490,,East Bernstadt,KY,40729,LAUREL ,Independent,3
Willard Grocery,-83.269638,37.262444,6015 KY Highway 451,,Hazard,KY,41701,PERRY ,Independent,3
WINDSOR GROCERY INC,-84.643349,37.089458,1855 W Highway 80,,Somerset,KY,42503,PULASKI ,Independent,3
Witts Country Market,-84.020622,37.70639,4650 Richmond Rd,,Irvine,KY,40336,ESTILL ,Independent,3
"YODER'S BULK FOODS, INC",-82.978134,37.328571,1319 Hindman Byp,,Hindman,KY,41822,KNOTT ,Independent,3
YOUNG GROCERY,-84.09716,36.736526,5090 E Highway 904,,Williamsburg,KY,40769,WHITLEY ,Independent,3
Walmart 693,-83.357613,37.552048,1589 Highway 15 S,,Jackson,KY,41339,BREATHITT ,Superstore,4
Walmart S/C  2548,-82.272285,37.65884,28402 US Highway 119,,South Williamson,KY,41503,PIKE ,Superstore,4
Walmart S/C  689,-84.621864,37.067039,177 Washington Dr,,Somerset,KY,42501,PULASKI ,Superstore,4
Walmart S/C 1048,-84.165337,36.725094,589 W Highway 92,,Williamsburg,KY,40769,WHITLEY ,Superstore,4
Walmart S/C 1113,-84.096642,37.111687,1851 WEST HWY 192,,LONDON,KY,40741,LAUREL ,Superstore,4
Walmart S/C 1259,-84.106178,36.972195,60 SOUTH STEWART RD.,,CORBIN,KY,40701,WHITLEY ,Superstore,4
Walmart S/C 1505,-82.536201,37.504799,254 Cassidy Blvd,,Pikeville,KY,41501,PIKE ,Superstore,4
Walmart S/C 739,-83.71727,36.634174,US HWY 25E/KY HWY 441,,MIDDLESBORO,KY,40965,BELL ,Superstore,4
Walmart STORE  1233,-82.815819,37.81707,470 N Mayo Trl,,Paintsville,KY,41240,JOHNSON ,Superstore,4
Walmart STORE  1743,-83.317131,36.819599,201 Waldon Dr,,Harlan,KY,40831,HARLAN ,Superstore,4
Walmart STORE  696,-82.781509,37.655277,477 Village Dr,,Prestonsburg,KY,41653,FLOYD ,Superstore,4
Walmart STORE 1189,-83.885254,36.8512,301 Parkway Plz,,Barbourville,KY,40906,KNOX ,Superstore,4
Walmart STORE 545,-83.716232,37.128429,240 Manchester Square Shpg Ctr,,Manchester,KY,40962,CLAY ,Superstore,4
Walmart STORE 552,-82.792641,37.116875,350 WHITESBURG PLAZA,,WHITESBURG,KY,41858,LETCHER ,Superstore,4
Walmart Supercenter 1247,-83.214226,37.298267,120 Daniel Boone Plz,,Hazard,KY,41701,PERRY ,Superstore,4
Walmart Supercenter 4461,-82.636284,38.137569,275 Walton Dr,,Louisa,KY,41230,LAWRENCE ,Superstore,4
